[
  {
    "municipio": "Abla",
    "provincia": "Almería",
    "comunidad": "Andalucía",
    "latitud": "37.1411446",
    "longitud": "-2.7801036",
    "Enlace Google Maps": "http://maps.google.es/maps?z=14&ll=37.1411446,-2.7801036"
  },
  {
    "municipio": "Abrucena",
    "provincia": "Almería",
    "comunidad": "Andalucía",
    "latitud": "37.1330481",
    "longitud": "-2.7970982",
    "Enlace Google Maps": "http://maps.google.es/maps?z=14&ll=37.1330481,-2.7970982"
  },
  {
    "municipio": "Adra",
    "provincia": "Almería",
    "comunidad": "Andalucía",
    "latitud": "36.7480711",
    "longitud": "-3.0225224",
    "Enlace Google Maps": "http://maps.google.es/maps?z=14&ll=36.7480711,-3.0225224"
  },
  {
    "municipio": "Albánchez",
    "provincia": "Almería",
    "comunidad": "Andalucía",
    "latitud": "37.2871024",
    "longitud": "-2.1811632",
    "Enlace Google Maps": "http://maps.google.es/maps?z=14&ll=37.2871024,-2.1811632"
  },
  {
    "municipio": "Alboloduy",
    "provincia": "Almería",
    "comunidad": "Andalucía",
    "latitud": "37.0331869",
    "longitud": "-2.6217497",
    "Enlace Google Maps": "http://maps.google.es/maps?z=14&ll=37.0331869,-2.6217497"
  },
  {
    "municipio": "Albox",
    "provincia": "Almería",
    "comunidad": "Andalucía",
    "latitud": "37.3897879",
    "longitud": "-2.147483",
    "Enlace Google Maps": "http://maps.google.es/maps?z=14&ll=37.3897879,-2.147483"
  },
  {
    "municipio": "Alcolea",
    "provincia": "Almería",
    "comunidad": "Andalucía",
    "latitud": "36.9744883",
    "longitud": "-2.9610382",
    "Enlace Google Maps": "http://maps.google.es/maps?z=14&ll=36.9744883,-2.9610382"
  },
  {
    "municipio": "Alcóntar",
    "provincia": "Almería",
    "comunidad": "Andalucía",
    "latitud": "37.3358524",
    "longitud": "-2.5969435",
    "Enlace Google Maps": "http://maps.google.es/maps?z=14&ll=37.3358524,-2.5969435"
  },
  {
    "municipio": "Alcudia de Monteagud",
    "provincia": "Almería",
    "comunidad": "Andalucía",
    "latitud": "37.2359862",
    "longitud": "-2.2661735",
    "Enlace Google Maps": "http://maps.google.es/maps?z=14&ll=37.2359862,-2.2661735"
  },
  {
    "municipio": "Alhabia",
    "provincia": "Almería",
    "comunidad": "Andalucía",
    "latitud": "36.9893054",
    "longitud": "-2.587667",
    "Enlace Google Maps": "http://maps.google.es/maps?z=14&ll=36.9893054,-2.587667"
  },
  {
    "municipio": "Alhama de Almería",
    "provincia": "Almería",
    "comunidad": "Andalucía",
    "latitud": "36.957424",
    "longitud": "-2.5700746",
    "Enlace Google Maps": "http://maps.google.es/maps?z=14&ll=36.957424,-2.5700746"
  },
  {
    "municipio": "Alicún",
    "provincia": "Almería",
    "comunidad": "Andalucía",
    "latitud": "36.9662998",
    "longitud": "-2.6019941",
    "Enlace Google Maps": "http://maps.google.es/maps?z=14&ll=36.9662998,-2.6019941"
  },
  {
    "municipio": "Almería",
    "provincia": "Almería",
    "comunidad": "Andalucía",
    "latitud": "36.8401638",
    "longitud": "-2.4679217",
    "Enlace Google Maps": "http://maps.google.es/maps?z=14&ll=36.8401638,-2.4679217"
  },
  {
    "municipio": "Almócita",
    "provincia": "Almería",
    "comunidad": "Andalucía",
    "latitud": "37.0023578",
    "longitud": "-2.7900709",
    "Enlace Google Maps": "http://maps.google.es/maps?z=14&ll=37.0023578,-2.7900709"
  },
  {
    "municipio": "Alsodux",
    "provincia": "Almería",
    "comunidad": "Andalucía",
    "latitud": "37.0019951",
    "longitud": "-2.5945791",
    "Enlace Google Maps": "http://maps.google.es/maps?z=14&ll=37.0019951,-2.5945791"
  },
  {
    "municipio": "Antas",
    "provincia": "Almería",
    "comunidad": "Andalucía",
    "latitud": "37.2451615",
    "longitud": "-1.9175428",
    "Enlace Google Maps": "http://maps.google.es/maps?z=14&ll=37.2451615,-1.9175428"
  },
  {
    "municipio": "Arboleas",
    "provincia": "Almería",
    "comunidad": "Andalucía",
    "latitud": "37.3502469",
    "longitud": "-2.0748669",
    "Enlace Google Maps": "http://maps.google.es/maps?z=14&ll=37.3502469,-2.0748669"
  },
  {
    "municipio": "Armuña de Almanzora",
    "provincia": "Almería",
    "comunidad": "Andalucía",
    "latitud": "37.34969",
    "longitud": "-2.4113959",
    "Enlace Google Maps": "http://maps.google.es/maps?z=14&ll=37.34969,-2.4113959"
  },
  {
    "municipio": "Bacares",
    "provincia": "Almería",
    "comunidad": "Andalucía",
    "latitud": "37.2608284",
    "longitud": "-2.4547612",
    "Enlace Google Maps": "http://maps.google.es/maps?z=14&ll=37.2608284,-2.4547612"
  },
  {
    "municipio": "Bayárcal",
    "provincia": "Almería",
    "comunidad": "Andalucía",
    "latitud": "37.0311629",
    "longitud": "-2.9964688",
    "Enlace Google Maps": "http://maps.google.es/maps?z=14&ll=37.0311629,-2.9964688"
  },
  {
    "municipio": "Bayarque",
    "provincia": "Almería",
    "comunidad": "Andalucía",
    "latitud": "37.3309071",
    "longitud": "-2.4356596",
    "Enlace Google Maps": "http://maps.google.es/maps?z=14&ll=37.3309071,-2.4356596"
  },
  {
    "municipio": "Bédar",
    "provincia": "Almería",
    "comunidad": "Andalucía",
    "latitud": "37.1896398",
    "longitud": "-1.9818983",
    "Enlace Google Maps": "http://maps.google.es/maps?z=14&ll=37.1896398,-1.9818983"
  },
  {
    "municipio": "Beires",
    "provincia": "Almería",
    "comunidad": "Andalucía",
    "latitud": "37.0120025",
    "longitud": "-2.7909276",
    "Enlace Google Maps": "http://maps.google.es/maps?z=14&ll=37.0120025,-2.7909276"
  },
  {
    "municipio": "Benahadux",
    "provincia": "Almería",
    "comunidad": "Andalucía",
    "latitud": "36.9258636",
    "longitud": "-2.4556826",
    "Enlace Google Maps": "http://maps.google.es/maps?z=14&ll=36.9258636,-2.4556826"
  },
  {
    "municipio": "Benitagla",
    "provincia": "Almería",
    "comunidad": "Andalucía",
    "latitud": "37.2312432",
    "longitud": "-2.2391067",
    "Enlace Google Maps": "http://maps.google.es/maps?z=14&ll=37.2312432,-2.2391067"
  },
  {
    "municipio": "Benizalón",
    "provincia": "Almería",
    "comunidad": "Andalucía",
    "latitud": "37.2117466",
    "longitud": "-2.2416847",
    "Enlace Google Maps": "http://maps.google.es/maps?z=14&ll=37.2117466,-2.2416847"
  },
  {
    "municipio": "Bentarique",
    "provincia": "Almería",
    "comunidad": "Andalucía",
    "latitud": "36.9865206",
    "longitud": "-2.6194202",
    "Enlace Google Maps": "http://maps.google.es/maps?z=14&ll=36.9865206,-2.6194202"
  },
  {
    "municipio": "Berja",
    "provincia": "Almería",
    "comunidad": "Andalucía",
    "latitud": "36.8464402",
    "longitud": "-2.9494252",
    "Enlace Google Maps": "http://maps.google.es/maps?z=14&ll=36.8464402,-2.9494252"
  },
  {
    "municipio": "Canjáyar",
    "provincia": "Almería",
    "comunidad": "Andalucía",
    "latitud": "37.0097322",
    "longitud": "-2.7396811",
    "Enlace Google Maps": "http://maps.google.es/maps?z=14&ll=37.0097322,-2.7396811"
  },
  {
    "municipio": "Cantoria",
    "provincia": "Almería",
    "comunidad": "Andalucía",
    "latitud": "37.3525943",
    "longitud": "-2.1936263",
    "Enlace Google Maps": "http://maps.google.es/maps?z=14&ll=37.3525943,-2.1936263"
  },
  {
    "municipio": "Carboneras",
    "provincia": "Almería",
    "comunidad": "Andalucía",
    "latitud": "36.996586",
    "longitud": "-1.8950117",
    "Enlace Google Maps": "http://maps.google.es/maps?z=14&ll=36.996586,-1.8950117"
  },
  {
    "municipio": "Castro de Filabres",
    "provincia": "Almería",
    "comunidad": "Andalucía",
    "latitud": "37.1846349",
    "longitud": "-2.4395242",
    "Enlace Google Maps": "http://maps.google.es/maps?z=14&ll=37.1846349,-2.4395242"
  },
  {
    "municipio": "Chercos",
    "provincia": "Almería",
    "comunidad": "Andalucía",
    "latitud": "37.2663328",
    "longitud": "-2.2578972",
    "Enlace Google Maps": "http://maps.google.es/maps?z=14&ll=37.2663328,-2.2578972"
  },
  {
    "municipio": "Chirivel",
    "provincia": "Almería",
    "comunidad": "Andalucía",
    "latitud": "37.5956045",
    "longitud": "-2.2648388",
    "Enlace Google Maps": "http://maps.google.es/maps?z=14&ll=37.5956045,-2.2648388"
  },
  {
    "municipio": "Cóbdar",
    "provincia": "Almería",
    "comunidad": "Andalucía",
    "latitud": "37.2619895",
    "longitud": "-2.2102232",
    "Enlace Google Maps": "http://maps.google.es/maps?z=14&ll=37.2619895,-2.2102232"
  },
  {
    "municipio": "Cuevas del Almanzora",
    "provincia": "Almería",
    "comunidad": "Andalucía",
    "latitud": "37.2970929",
    "longitud": "-1.8814762",
    "Enlace Google Maps": "http://maps.google.es/maps?z=14&ll=37.2970929,-1.8814762"
  },
  {
    "municipio": "Dalías",
    "provincia": "Almería",
    "comunidad": "Andalucía",
    "latitud": "36.8212091",
    "longitud": "-2.8706965",
    "Enlace Google Maps": "http://maps.google.es/maps?z=14&ll=36.8212091,-2.8706965"
  },
  {
    "municipio": "Ejido, El",
    "provincia": "Almería",
    "comunidad": "Andalucía",
    "latitud": "36.7750616",
    "longitud": "-2.8127379",
    "Enlace Google Maps": "http://maps.google.es/maps?z=14&ll=36.7750616,-2.8127379"
  },
  {
    "municipio": "Enix",
    "provincia": "Almería",
    "comunidad": "Andalucía",
    "latitud": "36.8770413",
    "longitud": "-2.6021068",
    "Enlace Google Maps": "http://maps.google.es/maps?z=14&ll=36.8770413,-2.6021068"
  },
  {
    "municipio": "Felix",
    "provincia": "Almería",
    "comunidad": "Andalucía",
    "latitud": "36.8689235",
    "longitud": "-2.6579207",
    "Enlace Google Maps": "http://maps.google.es/maps?z=14&ll=36.8689235,-2.6579207"
  },
  {
    "municipio": "Fines",
    "provincia": "Almería",
    "comunidad": "Andalucía",
    "latitud": "37.358875",
    "longitud": "-2.262964",
    "Enlace Google Maps": "http://maps.google.es/maps?z=14&ll=37.358875,-2.262964"
  },
  {
    "municipio": "Fiñana",
    "provincia": "Almería",
    "comunidad": "Andalucía",
    "latitud": "37.1710128",
    "longitud": "-2.8406783",
    "Enlace Google Maps": "http://maps.google.es/maps?z=14&ll=37.1710128,-2.8406783"
  },
  {
    "municipio": "Fondón",
    "provincia": "Almería",
    "comunidad": "Andalucía",
    "latitud": "36.979417",
    "longitud": "-2.8583558",
    "Enlace Google Maps": "http://maps.google.es/maps?z=14&ll=36.979417,-2.8583558"
  },
  {
    "municipio": "Gádor",
    "provincia": "Almería",
    "comunidad": "Andalucía",
    "latitud": "36.9539283",
    "longitud": "-2.4929356",
    "Enlace Google Maps": "http://maps.google.es/maps?z=14&ll=36.9539283,-2.4929356"
  },
  {
    "municipio": "Gallardos, Los",
    "provincia": "Almería",
    "comunidad": "Andalucía",
    "latitud": "36.8400838",
    "longitud": "-2.4102092",
    "Enlace Google Maps": "http://maps.google.es/maps?z=14&ll=36.8400838,-2.4102092"
  },
  {
    "municipio": "Garrucha",
    "provincia": "Almería",
    "comunidad": "Andalucía",
    "latitud": "37.17925",
    "longitud": "-1.8219007",
    "Enlace Google Maps": "http://maps.google.es/maps?z=14&ll=37.17925,-1.8219007"
  },
  {
    "municipio": "Gérgal",
    "provincia": "Almería",
    "comunidad": "Andalucía",
    "latitud": "37.120699",
    "longitud": "-2.5383052",
    "Enlace Google Maps": "http://maps.google.es/maps?z=14&ll=37.120699,-2.5383052"
  },
  {
    "municipio": "Huécija",
    "provincia": "Almería",
    "comunidad": "Andalucía",
    "latitud": "36.9678769",
    "longitud": "-2.6114357",
    "Enlace Google Maps": "http://maps.google.es/maps?z=14&ll=36.9678769,-2.6114357"
  },
  {
    "municipio": "Huércal de Almería",
    "provincia": "Almería",
    "comunidad": "Andalucía",
    "latitud": "36.8841517",
    "longitud": "-2.4359781",
    "Enlace Google Maps": "http://maps.google.es/maps?z=14&ll=36.8841517,-2.4359781"
  },
  {
    "municipio": "Huércal-Overa",
    "provincia": "Almería",
    "comunidad": "Andalucía",
    "latitud": "37.3906231",
    "longitud": "-1.9436843",
    "Enlace Google Maps": "http://maps.google.es/maps?z=14&ll=37.3906231,-1.9436843"
  },
  {
    "municipio": "Illar",
    "provincia": "Almería",
    "comunidad": "Andalucía",
    "latitud": "36.9850372",
    "longitud": "-2.6393024",
    "Enlace Google Maps": "http://maps.google.es/maps?z=14&ll=36.9850372,-2.6393024"
  },
  {
    "municipio": "Instinción",
    "provincia": "Almería",
    "comunidad": "Andalucía",
    "latitud": "36.9931577",
    "longitud": "-2.6599447",
    "Enlace Google Maps": "http://maps.google.es/maps?z=14&ll=36.9931577,-2.6599447"
  },
  {
    "municipio": "Laroya",
    "provincia": "Almería",
    "comunidad": "Andalucía",
    "latitud": "37.2966726",
    "longitud": "-2.3296012",
    "Enlace Google Maps": "http://maps.google.es/maps?z=14&ll=37.2966726,-2.3296012"
  },
  {
    "municipio": "Láujar de Andarax",
    "provincia": "Almería",
    "comunidad": "Andalucía",
    "latitud": "36.9938363",
    "longitud": "-2.8892198",
    "Enlace Google Maps": "http://maps.google.es/maps?z=14&ll=36.9938363,-2.8892198"
  },
  {
    "municipio": "Líjar",
    "provincia": "Almería",
    "comunidad": "Andalucía",
    "latitud": "37.2952694",
    "longitud": "-2.2199277",
    "Enlace Google Maps": "http://maps.google.es/maps?z=14&ll=37.2952694,-2.2199277"
  },
  {
    "municipio": "Lubrín",
    "provincia": "Almería",
    "comunidad": "Andalucía",
    "latitud": "37.2158556",
    "longitud": "-2.067055",
    "Enlace Google Maps": "http://maps.google.es/maps?z=14&ll=37.2158556,-2.067055"
  },
  {
    "municipio": "Lucainena de las Torres",
    "provincia": "Almería",
    "comunidad": "Andalucía",
    "latitud": "37.0417883",
    "longitud": "-2.2007056",
    "Enlace Google Maps": "http://maps.google.es/maps?z=14&ll=37.0417883,-2.2007056"
  },
  {
    "municipio": "Lúcar",
    "provincia": "Almería",
    "comunidad": "Andalucía",
    "latitud": "37.3996503",
    "longitud": "-2.4270743",
    "Enlace Google Maps": "http://maps.google.es/maps?z=14&ll=37.3996503,-2.4270743"
  },
  {
    "municipio": "Macael",
    "provincia": "Almería",
    "comunidad": "Andalucía",
    "latitud": "37.3322913",
    "longitud": "-2.3048916",
    "Enlace Google Maps": "http://maps.google.es/maps?z=14&ll=37.3322913,-2.3048916"
  },
  {
    "municipio": "María",
    "provincia": "Almería",
    "comunidad": "Andalucía",
    "latitud": "37.7111023",
    "longitud": "-2.1657949",
    "Enlace Google Maps": "http://maps.google.es/maps?z=14&ll=37.7111023,-2.1657949"
  },
  {
    "municipio": "Mojácar",
    "provincia": "Almería",
    "comunidad": "Andalucía",
    "latitud": "37.1399459",
    "longitud": "-1.851328",
    "Enlace Google Maps": "http://maps.google.es/maps?z=14&ll=37.1399459,-1.851328"
  },
  {
    "municipio": "Mojonera, La",
    "provincia": "Almería",
    "comunidad": "Andalucía",
    "latitud": "37.0917379",
    "longitud": "-2.2468319",
    "Enlace Google Maps": "http://maps.google.es/maps?z=14&ll=37.0917379,-2.2468319"
  },
  {
    "municipio": "Nacimiento",
    "provincia": "Almería",
    "comunidad": "Andalucía",
    "latitud": "37.1049744",
    "longitud": "-2.64774",
    "Enlace Google Maps": "http://maps.google.es/maps?z=14&ll=37.1049744,-2.64774"
  },
  {
    "municipio": "Níjar",
    "provincia": "Almería",
    "comunidad": "Andalucía",
    "latitud": "36.9657612",
    "longitud": "-2.2065096",
    "Enlace Google Maps": "http://maps.google.es/maps?z=14&ll=36.9657612,-2.2065096"
  },
  {
    "municipio": "Ohanes",
    "provincia": "Almería",
    "comunidad": "Andalucía",
    "latitud": "37.0372332",
    "longitud": "-2.7451682",
    "Enlace Google Maps": "http://maps.google.es/maps?z=14&ll=37.0372332,-2.7451682"
  },
  {
    "municipio": "Olula de Castro",
    "provincia": "Almería",
    "comunidad": "Andalucía",
    "latitud": "37.176107",
    "longitud": "-2.4762967",
    "Enlace Google Maps": "http://maps.google.es/maps?z=14&ll=37.176107,-2.4762967"
  },
  {
    "municipio": "Olula del Río",
    "provincia": "Almería",
    "comunidad": "Andalucía",
    "latitud": "37.3521187",
    "longitud": "-2.2981211",
    "Enlace Google Maps": "http://maps.google.es/maps?z=14&ll=37.3521187,-2.2981211"
  },
  {
    "municipio": "Oria",
    "provincia": "Almería",
    "comunidad": "Andalucía",
    "latitud": "37.4850307",
    "longitud": "-2.2950183",
    "Enlace Google Maps": "http://maps.google.es/maps?z=14&ll=37.4850307,-2.2950183"
  },
  {
    "municipio": "Padules",
    "provincia": "Almería",
    "comunidad": "Andalucía",
    "latitud": "36.9988404",
    "longitud": "-2.773482",
    "Enlace Google Maps": "http://maps.google.es/maps?z=14&ll=36.9988404,-2.773482"
  },
  {
    "municipio": "Partaloa",
    "provincia": "Almería",
    "comunidad": "Andalucía",
    "latitud": "37.4060417",
    "longitud": "-2.2264336",
    "Enlace Google Maps": "http://maps.google.es/maps?z=14&ll=37.4060417,-2.2264336"
  },
  {
    "municipio": "Paterna del Río",
    "provincia": "Almería",
    "comunidad": "Andalucía",
    "latitud": "37.0208808",
    "longitud": "-2.9530868",
    "Enlace Google Maps": "http://maps.google.es/maps?z=14&ll=37.0208808,-2.9530868"
  },
  {
    "municipio": "Pechina",
    "provincia": "Almería",
    "comunidad": "Andalucía",
    "latitud": "36.9166694",
    "longitud": "-2.4406249",
    "Enlace Google Maps": "http://maps.google.es/maps?z=14&ll=36.9166694,-2.4406249"
  },
  {
    "municipio": "Pulpí",
    "provincia": "Almería",
    "comunidad": "Andalucía",
    "latitud": "37.4118301",
    "longitud": "-1.7455017",
    "Enlace Google Maps": "http://maps.google.es/maps?z=14&ll=37.4118301,-1.7455017"
  },
  {
    "municipio": "Purchena",
    "provincia": "Almería",
    "comunidad": "Andalucía",
    "latitud": "37.3485471",
    "longitud": "-2.36155",
    "Enlace Google Maps": "http://maps.google.es/maps?z=14&ll=37.3485471,-2.36155"
  },
  {
    "municipio": "Rágol",
    "provincia": "Almería",
    "comunidad": "Andalucía",
    "latitud": "36.9956448",
    "longitud": "-2.6809891",
    "Enlace Google Maps": "http://maps.google.es/maps?z=14&ll=36.9956448,-2.6809891"
  },
  {
    "municipio": "Rioja",
    "provincia": "Almería",
    "comunidad": "Andalucía",
    "latitud": "36.9440586",
    "longitud": "-2.4624238",
    "Enlace Google Maps": "http://maps.google.es/maps?z=14&ll=36.9440586,-2.4624238"
  },
  {
    "municipio": "Roquetas de Mar",
    "provincia": "Almería",
    "comunidad": "Andalucía",
    "latitud": "36.7642742",
    "longitud": "-2.6149347",
    "Enlace Google Maps": "http://maps.google.es/maps?z=14&ll=36.7642742,-2.6149347"
  },
  {
    "municipio": "Santa Cruz de Marchena",
    "provincia": "Almería",
    "comunidad": "Andalucía",
    "latitud": "37.0172028",
    "longitud": "-2.6037676",
    "Enlace Google Maps": "http://maps.google.es/maps?z=14&ll=37.0172028,-2.6037676"
  },
  {
    "municipio": "Santa Fe de Mondújar",
    "provincia": "Almería",
    "comunidad": "Andalucía",
    "latitud": "36.9750609",
    "longitud": "-2.5302795",
    "Enlace Google Maps": "http://maps.google.es/maps?z=14&ll=36.9750609,-2.5302795"
  },
  {
    "municipio": "Senés",
    "provincia": "Almería",
    "comunidad": "Andalucía",
    "latitud": "37.2045712",
    "longitud": "-2.3475437",
    "Enlace Google Maps": "http://maps.google.es/maps?z=14&ll=37.2045712,-2.3475437"
  },
  {
    "municipio": "Serón",
    "provincia": "Almería",
    "comunidad": "Andalucía",
    "latitud": "37.3436139",
    "longitud": "-2.5080771",
    "Enlace Google Maps": "http://maps.google.es/maps?z=14&ll=37.3436139,-2.5080771"
  },
  {
    "municipio": "Sierro",
    "provincia": "Almería",
    "comunidad": "Andalucía",
    "latitud": "37.3234824",
    "longitud": "-2.3985258",
    "Enlace Google Maps": "http://maps.google.es/maps?z=14&ll=37.3234824,-2.3985258"
  },
  {
    "municipio": "Somontín",
    "provincia": "Almería",
    "comunidad": "Andalucía",
    "latitud": "37.3913919",
    "longitud": "-2.3891269",
    "Enlace Google Maps": "http://maps.google.es/maps?z=14&ll=37.3913919,-2.3891269"
  },
  {
    "municipio": "Sorbas",
    "provincia": "Almería",
    "comunidad": "Andalucía",
    "latitud": "37.0984074",
    "longitud": "-2.1263514",
    "Enlace Google Maps": "http://maps.google.es/maps?z=14&ll=37.0984074,-2.1263514"
  },
  {
    "municipio": "Suflí",
    "provincia": "Almería",
    "comunidad": "Andalucía",
    "latitud": "37.3382011",
    "longitud": "-2.3895228",
    "Enlace Google Maps": "http://maps.google.es/maps?z=14&ll=37.3382011,-2.3895228"
  },
  {
    "municipio": "Tabernas",
    "provincia": "Almería",
    "comunidad": "Andalucía",
    "latitud": "37.0494467",
    "longitud": "-2.3926811",
    "Enlace Google Maps": "http://maps.google.es/maps?z=14&ll=37.0494467,-2.3926811"
  },
  {
    "municipio": "Taberno",
    "provincia": "Almería",
    "comunidad": "Andalucía",
    "latitud": "37.4672901",
    "longitud": "-2.076205",
    "Enlace Google Maps": "http://maps.google.es/maps?z=14&ll=37.4672901,-2.076205"
  },
  {
    "municipio": "Tahal",
    "provincia": "Almería",
    "comunidad": "Andalucía",
    "latitud": "37.2280361",
    "longitud": "-2.2849704",
    "Enlace Google Maps": "http://maps.google.es/maps?z=14&ll=37.2280361,-2.2849704"
  },
  {
    "municipio": "Terque",
    "provincia": "Almería",
    "comunidad": "Andalucía",
    "latitud": "36.9835848",
    "longitud": "-2.5972332",
    "Enlace Google Maps": "http://maps.google.es/maps?z=14&ll=36.9835848,-2.5972332"
  },
  {
    "municipio": "Tíjola",
    "provincia": "Almería",
    "comunidad": "Andalucía",
    "latitud": "37.3455072",
    "longitud": "-2.4394337",
    "Enlace Google Maps": "http://maps.google.es/maps?z=14&ll=37.3455072,-2.4394337"
  },
  {
    "municipio": "Tres Villas, Las",
    "provincia": "Almería",
    "comunidad": "Andalucía",
    "latitud": "36.8400897",
    "longitud": "-2.3025253",
    "Enlace Google Maps": "http://maps.google.es/maps?z=14&ll=36.8400897,-2.3025253"
  },
  {
    "municipio": "Turre",
    "provincia": "Almería",
    "comunidad": "Andalucía",
    "latitud": "37.1522494",
    "longitud": "-1.8948989",
    "Enlace Google Maps": "http://maps.google.es/maps?z=14&ll=37.1522494,-1.8948989"
  },
  {
    "municipio": "Turrillas",
    "provincia": "Almería",
    "comunidad": "Andalucía",
    "latitud": "37.030185",
    "longitud": "-2.2640956",
    "Enlace Google Maps": "http://maps.google.es/maps?z=14&ll=37.030185,-2.2640956"
  },
  {
    "municipio": "Uleila del Campo",
    "provincia": "Almería",
    "comunidad": "Andalucía",
    "latitud": "37.1854838",
    "longitud": "-2.2038011",
    "Enlace Google Maps": "http://maps.google.es/maps?z=14&ll=37.1854838,-2.2038011"
  },
  {
    "municipio": "Urrácal",
    "provincia": "Almería",
    "comunidad": "Andalucía",
    "latitud": "37.3973231",
    "longitud": "-2.3650704",
    "Enlace Google Maps": "http://maps.google.es/maps?z=14&ll=37.3973231,-2.3650704"
  },
  {
    "municipio": "Velefique",
    "provincia": "Almería",
    "comunidad": "Andalucía",
    "latitud": "37.1937509",
    "longitud": "-2.4036872",
    "Enlace Google Maps": "http://maps.google.es/maps?z=14&ll=37.1937509,-2.4036872"
  },
  {
    "municipio": "Vélez-Blanco",
    "provincia": "Almería",
    "comunidad": "Andalucía",
    "latitud": "37.6909521",
    "longitud": "-2.0956818",
    "Enlace Google Maps": "http://maps.google.es/maps?z=14&ll=37.6909521,-2.0956818"
  },
  {
    "municipio": "Vélez-Rubio",
    "provincia": "Almería",
    "comunidad": "Andalucía",
    "latitud": "37.6480201",
    "longitud": "-2.0742319",
    "Enlace Google Maps": "http://maps.google.es/maps?z=14&ll=37.6480201,-2.0742319"
  },
  {
    "municipio": "Vera",
    "provincia": "Almería",
    "comunidad": "Andalucía",
    "latitud": "37.2468629",
    "longitud": "-1.8682384",
    "Enlace Google Maps": "http://maps.google.es/maps?z=14&ll=37.2468629,-1.8682384"
  },
  {
    "municipio": "Viator",
    "provincia": "Almería",
    "comunidad": "Andalucía",
    "latitud": "36.8896345",
    "longitud": "-2.4265414",
    "Enlace Google Maps": "http://maps.google.es/maps?z=14&ll=36.8896345,-2.4265414"
  },
  {
    "municipio": "Vícar",
    "provincia": "Almería",
    "comunidad": "Andalucía",
    "latitud": "36.8314525",
    "longitud": "-2.6425154",
    "Enlace Google Maps": "http://maps.google.es/maps?z=14&ll=36.8314525,-2.6425154"
  },
  {
    "municipio": "Zurgena",
    "provincia": "Almería",
    "comunidad": "Andalucía",
    "latitud": "37.3426519",
    "longitud": "-2.0396074",
    "Enlace Google Maps": "http://maps.google.es/maps?z=14&ll=37.3426519,-2.0396074"
  },
  {
    "municipio": "Alcalá de los Gazules",
    "provincia": "Cádiz",
    "comunidad": "Andalucía",
    "latitud": "36.4604548",
    "longitud": "-5.7237178",
    "Enlace Google Maps": "http://maps.google.es/maps?z=14&ll=36.4604548,-5.7237178"
  },
  {
    "municipio": "Alcalá del Valle",
    "provincia": "Cádiz",
    "comunidad": "Andalucía",
    "latitud": "36.9049152",
    "longitud": "-5.1732367",
    "Enlace Google Maps": "http://maps.google.es/maps?z=14&ll=36.9049152,-5.1732367"
  },
  {
    "municipio": "Algar",
    "provincia": "Cádiz",
    "comunidad": "Andalucía",
    "latitud": "36.6553251",
    "longitud": "-5.657418",
    "Enlace Google Maps": "http://maps.google.es/maps?z=14&ll=36.6553251,-5.657418"
  },
  {
    "municipio": "Algeciras",
    "provincia": "Cádiz",
    "comunidad": "Andalucía",
    "latitud": "36.1297803",
    "longitud": "-5.4476981",
    "Enlace Google Maps": "http://maps.google.es/maps?z=14&ll=36.1297803,-5.4476981"
  },
  {
    "municipio": "Algodonales",
    "provincia": "Cádiz",
    "comunidad": "Andalucía",
    "latitud": "36.8809228",
    "longitud": "-5.4057729",
    "Enlace Google Maps": "http://maps.google.es/maps?z=14&ll=36.8809228,-5.4057729"
  },
  {
    "municipio": "Arcos de la Frontera",
    "provincia": "Cádiz",
    "comunidad": "Andalucía",
    "latitud": "36.750779",
    "longitud": "-5.8123948",
    "Enlace Google Maps": "http://maps.google.es/maps?z=14&ll=36.750779,-5.8123948"
  },
  {
    "municipio": "Barbate",
    "provincia": "Cádiz",
    "comunidad": "Andalucía",
    "latitud": "36.192816",
    "longitud": "-5.918903",
    "Enlace Google Maps": "http://maps.google.es/maps?z=14&ll=36.192816,-5.918903"
  },
  {
    "municipio": "Barrios, Los",
    "provincia": "Cádiz",
    "comunidad": "Andalucía",
    "latitud": "36.1853857",
    "longitud": "-5.4927475",
    "Enlace Google Maps": "http://maps.google.es/maps?z=14&ll=36.1853857,-5.4927475"
  },
  {
    "municipio": "Benalup-Casas Viejas",
    "provincia": "Cádiz",
    "comunidad": "Andalucía",
    "latitud": "36.3428388",
    "longitud": "-5.8094",
    "Enlace Google Maps": "http://maps.google.es/maps?z=14&ll=36.3428388,-5.8094"
  },
  {
    "municipio": "Benaocaz",
    "provincia": "Cádiz",
    "comunidad": "Andalucía",
    "latitud": "36.6995191",
    "longitud": "-5.4212627",
    "Enlace Google Maps": "http://maps.google.es/maps?z=14&ll=36.6995191,-5.4212627"
  },
  {
    "municipio": "Bornos",
    "provincia": "Cádiz",
    "comunidad": "Andalucía",
    "latitud": "36.8145887",
    "longitud": "-5.7433626",
    "Enlace Google Maps": "http://maps.google.es/maps?z=14&ll=36.8145887,-5.7433626"
  },
  {
    "municipio": "Bosque, El",
    "provincia": "Cádiz",
    "comunidad": "Andalucía",
    "latitud": "36.7575169",
    "longitud": "-5.5069874",
    "Enlace Google Maps": "http://maps.google.es/maps?z=14&ll=36.7575169,-5.5069874"
  },
  {
    "municipio": "Cádiz",
    "provincia": "Cádiz",
    "comunidad": "Andalucía",
    "latitud": "36.5296879",
    "longitud": "-6.2926569",
    "Enlace Google Maps": "http://maps.google.es/maps?z=14&ll=36.5296879,-6.2926569"
  },
  {
    "municipio": "Castellar de la Frontera",
    "provincia": "Cádiz",
    "comunidad": "Andalucía",
    "latitud": "36.2862098",
    "longitud": "-5.4199373",
    "Enlace Google Maps": "http://maps.google.es/maps?z=14&ll=36.2862098,-5.4199373"
  },
  {
    "municipio": "Chiclana de la Frontera",
    "provincia": "Cádiz",
    "comunidad": "Andalucía",
    "latitud": "36.4191532",
    "longitud": "-6.149412",
    "Enlace Google Maps": "http://maps.google.es/maps?z=14&ll=36.4191532,-6.149412"
  },
  {
    "municipio": "Chipiona",
    "provincia": "Cádiz",
    "comunidad": "Andalucía",
    "latitud": "36.7408046",
    "longitud": "-6.4358696",
    "Enlace Google Maps": "http://maps.google.es/maps?z=14&ll=36.7408046,-6.4358696"
  },
  {
    "municipio": "Conil de la Frontera",
    "provincia": "Cádiz",
    "comunidad": "Andalucía",
    "latitud": "36.2767507",
    "longitud": "-6.0884356",
    "Enlace Google Maps": "http://maps.google.es/maps?z=14&ll=36.2767507,-6.0884356"
  },
  {
    "municipio": "Espera",
    "provincia": "Cádiz",
    "comunidad": "Andalucía",
    "latitud": "36.8731903",
    "longitud": "-5.8062129",
    "Enlace Google Maps": "http://maps.google.es/maps?z=14&ll=36.8731903,-5.8062129"
  },
  {
    "municipio": "Gastor, El",
    "provincia": "Cádiz",
    "comunidad": "Andalucía",
    "latitud": "36.8550873",
    "longitud": "-5.3236225",
    "Enlace Google Maps": "http://maps.google.es/maps?z=14&ll=36.8550873,-5.3236225"
  },
  {
    "municipio": "Grazalema",
    "provincia": "Cádiz",
    "comunidad": "Andalucía",
    "latitud": "36.7583638",
    "longitud": "-5.3660708",
    "Enlace Google Maps": "http://maps.google.es/maps?z=14&ll=36.7583638,-5.3660708"
  },
  {
    "municipio": "Jerez de la Frontera",
    "provincia": "Cádiz",
    "comunidad": "Andalucía",
    "latitud": "36.6865618",
    "longitud": "-6.1371725",
    "Enlace Google Maps": "http://maps.google.es/maps?z=14&ll=36.6865618,-6.1371725"
  },
  {
    "municipio": "Jimena de la Frontera",
    "provincia": "Cádiz",
    "comunidad": "Andalucía",
    "latitud": "36.4340437",
    "longitud": "-5.4534795",
    "Enlace Google Maps": "http://maps.google.es/maps?z=14&ll=36.4340437,-5.4534795"
  },
  {
    "municipio": "Línea de la Concepción, La",
    "provincia": "Cádiz",
    "comunidad": "Andalucía",
    "latitud": "36.1611788",
    "longitud": "-5.3482559",
    "Enlace Google Maps": "http://maps.google.es/maps?z=14&ll=36.1611788,-5.3482559"
  },
  {
    "municipio": "Medina-Sidonia",
    "provincia": "Cádiz",
    "comunidad": "Andalucía",
    "latitud": "36.4676809",
    "longitud": "-5.9278941",
    "Enlace Google Maps": "http://maps.google.es/maps?z=14&ll=36.4676809,-5.9278941"
  },
  {
    "municipio": "Olvera",
    "provincia": "Cádiz",
    "comunidad": "Andalucía",
    "latitud": "36.9352514",
    "longitud": "-5.267688",
    "Enlace Google Maps": "http://maps.google.es/maps?z=14&ll=36.9352514,-5.267688"
  },
  {
    "municipio": "Paterna de Rivera",
    "provincia": "Cádiz",
    "comunidad": "Andalucía",
    "latitud": "36.5233289",
    "longitud": "-5.8660532",
    "Enlace Google Maps": "http://maps.google.es/maps?z=14&ll=36.5233289,-5.8660532"
  },
  {
    "municipio": "Prado del Rey",
    "provincia": "Cádiz",
    "comunidad": "Andalucía",
    "latitud": "36.789685",
    "longitud": "-5.5555448",
    "Enlace Google Maps": "http://maps.google.es/maps?z=14&ll=36.789685,-5.5555448"
  },
  {
    "municipio": "Puerto de Santa María, El",
    "provincia": "Cádiz",
    "comunidad": "Andalucía",
    "latitud": "36.596953",
    "longitud": "-6.2275256",
    "Enlace Google Maps": "http://maps.google.es/maps?z=14&ll=36.596953,-6.2275256"
  },
  {
    "municipio": "Puerto Real",
    "provincia": "Cádiz",
    "comunidad": "Andalucía",
    "latitud": "36.5291221",
    "longitud": "-6.1918955",
    "Enlace Google Maps": "http://maps.google.es/maps?z=14&ll=36.5291221,-6.1918955"
  },
  {
    "municipio": "Puerto Serrano",
    "provincia": "Cádiz",
    "comunidad": "Andalucía",
    "latitud": "36.9215923",
    "longitud": "-5.5456216",
    "Enlace Google Maps": "http://maps.google.es/maps?z=14&ll=36.9215923,-5.5456216"
  },
  {
    "municipio": "Rota",
    "provincia": "Cádiz",
    "comunidad": "Andalucía",
    "latitud": "36.6169844",
    "longitud": "-6.3582016",
    "Enlace Google Maps": "http://maps.google.es/maps?z=14&ll=36.6169844,-6.3582016"
  },
  {
    "municipio": "San Fernando",
    "provincia": "Cádiz",
    "comunidad": "Andalucía",
    "latitud": "36.4656902",
    "longitud": "-6.1966757",
    "Enlace Google Maps": "http://maps.google.es/maps?z=14&ll=36.4656902,-6.1966757"
  },
  {
    "municipio": "San José del Valle",
    "provincia": "Cádiz",
    "comunidad": "Andalucía",
    "latitud": "36.6055407",
    "longitud": "-5.7989522",
    "Enlace Google Maps": "http://maps.google.es/maps?z=14&ll=36.6055407,-5.7989522"
  },
  {
    "municipio": "San Roque",
    "provincia": "Cádiz",
    "comunidad": "Andalucía",
    "latitud": "36.2097481",
    "longitud": "-5.3845717",
    "Enlace Google Maps": "http://maps.google.es/maps?z=14&ll=36.2097481,-5.3845717"
  },
  {
    "municipio": "Sanlúcar de Barrameda",
    "provincia": "Cádiz",
    "comunidad": "Andalucía",
    "latitud": "36.7788211",
    "longitud": "-6.3541978",
    "Enlace Google Maps": "http://maps.google.es/maps?z=14&ll=36.7788211,-6.3541978"
  },
  {
    "municipio": "Setenil de las Bodegas",
    "provincia": "Cádiz",
    "comunidad": "Andalucía",
    "latitud": "36.8640602",
    "longitud": "-5.1814132",
    "Enlace Google Maps": "http://maps.google.es/maps?z=14&ll=36.8640602,-5.1814132"
  },
  {
    "municipio": "Tarifa",
    "provincia": "Cádiz",
    "comunidad": "Andalucía",
    "latitud": "36.0127143",
    "longitud": "-5.6029544",
    "Enlace Google Maps": "http://maps.google.es/maps?z=14&ll=36.0127143,-5.6029544"
  },
  {
    "municipio": "Torre Alháquime",
    "provincia": "Cádiz",
    "comunidad": "Andalucía",
    "latitud": "36.9155351",
    "longitud": "-5.2347358",
    "Enlace Google Maps": "http://maps.google.es/maps?z=14&ll=36.9155351,-5.2347358"
  },
  {
    "municipio": "Trebujena",
    "provincia": "Cádiz",
    "comunidad": "Andalucía",
    "latitud": "36.869515",
    "longitud": "-6.1766952",
    "Enlace Google Maps": "http://maps.google.es/maps?z=14&ll=36.869515,-6.1766952"
  },
  {
    "municipio": "Ubrique",
    "provincia": "Cádiz",
    "comunidad": "Andalucía",
    "latitud": "36.6777102",
    "longitud": "-5.4465568",
    "Enlace Google Maps": "http://maps.google.es/maps?z=14&ll=36.6777102,-5.4465568"
  },
  {
    "municipio": "Vejer de la Frontera",
    "provincia": "Cádiz",
    "comunidad": "Andalucía",
    "latitud": "36.2533139",
    "longitud": "-5.9628564",
    "Enlace Google Maps": "http://maps.google.es/maps?z=14&ll=36.2533139,-5.9628564"
  },
  {
    "municipio": "Villaluenga del Rosario",
    "provincia": "Cádiz",
    "comunidad": "Andalucía",
    "latitud": "36.6958673",
    "longitud": "-5.3881374",
    "Enlace Google Maps": "http://maps.google.es/maps?z=14&ll=36.6958673,-5.3881374"
  },
  {
    "municipio": "Villamartín",
    "provincia": "Cádiz",
    "comunidad": "Andalucía",
    "latitud": "36.8613237",
    "longitud": "-5.641834",
    "Enlace Google Maps": "http://maps.google.es/maps?z=14&ll=36.8613237,-5.641834"
  },
  {
    "municipio": "Zahara",
    "provincia": "Cádiz",
    "comunidad": "Andalucía",
    "latitud": "36.8405269",
    "longitud": "-5.3905469",
    "Enlace Google Maps": "http://maps.google.es/maps?z=14&ll=36.8405269,-5.3905469"
  },
  {
    "municipio": "Adamuz",
    "provincia": "Córdoba",
    "comunidad": "Andalucía",
    "latitud": "38.0273636",
    "longitud": "-4.5248733",
    "Enlace Google Maps": "http://maps.google.es/maps?z=14&ll=38.0273636,-4.5248733"
  },
  {
    "municipio": "Aguilar de la Frontera",
    "provincia": "Córdoba",
    "comunidad": "Andalucía",
    "latitud": "37.5150249",
    "longitud": "-4.6560569",
    "Enlace Google Maps": "http://maps.google.es/maps?z=14&ll=37.5150249,-4.6560569"
  },
  {
    "municipio": "Alcaracejos",
    "provincia": "Córdoba",
    "comunidad": "Andalucía",
    "latitud": "38.3882311",
    "longitud": "-4.9676841",
    "Enlace Google Maps": "http://maps.google.es/maps?z=14&ll=38.3882311,-4.9676841"
  },
  {
    "municipio": "Almedinilla",
    "provincia": "Córdoba",
    "comunidad": "Andalucía",
    "latitud": "37.4390031",
    "longitud": "-4.0912049",
    "Enlace Google Maps": "http://maps.google.es/maps?z=14&ll=37.4390031,-4.0912049"
  },
  {
    "municipio": "Almodóvar del Río",
    "provincia": "Córdoba",
    "comunidad": "Andalucía",
    "latitud": "37.8095848",
    "longitud": "-5.0199586",
    "Enlace Google Maps": "http://maps.google.es/maps?z=14&ll=37.8095848,-5.0199586"
  },
  {
    "municipio": "Añora",
    "provincia": "Córdoba",
    "comunidad": "Andalucía",
    "latitud": "38.4109934",
    "longitud": "-4.8974616",
    "Enlace Google Maps": "http://maps.google.es/maps?z=14&ll=38.4109934,-4.8974616"
  },
  {
    "municipio": "Baena",
    "provincia": "Córdoba",
    "comunidad": "Andalucía",
    "latitud": "37.6144133",
    "longitud": "-4.3260896",
    "Enlace Google Maps": "http://maps.google.es/maps?z=14&ll=37.6144133,-4.3260896"
  },
  {
    "municipio": "Belalcázar",
    "provincia": "Córdoba",
    "comunidad": "Andalucía",
    "latitud": "38.5784345",
    "longitud": "-5.1671188",
    "Enlace Google Maps": "http://maps.google.es/maps?z=14&ll=38.5784345,-5.1671188"
  },
  {
    "municipio": "Belmez",
    "provincia": "Córdoba",
    "comunidad": "Andalucía",
    "latitud": "38.2723355",
    "longitud": "-5.208753",
    "Enlace Google Maps": "http://maps.google.es/maps?z=14&ll=38.2723355,-5.208753"
  },
  {
    "municipio": "Benamejí",
    "provincia": "Córdoba",
    "comunidad": "Andalucía",
    "latitud": "37.2673212",
    "longitud": "-4.5404178",
    "Enlace Google Maps": "http://maps.google.es/maps?z=14&ll=37.2673212,-4.5404178"
  },
  {
    "municipio": "Blázquez, Los",
    "provincia": "Córdoba",
    "comunidad": "Andalucía",
    "latitud": "38.408013",
    "longitud": "-5.437517",
    "Enlace Google Maps": "http://maps.google.es/maps?z=14&ll=38.408013,-5.437517"
  },
  {
    "municipio": "Bujalance",
    "provincia": "Córdoba",
    "comunidad": "Andalucía",
    "latitud": "37.8965712",
    "longitud": "-4.3835885",
    "Enlace Google Maps": "http://maps.google.es/maps?z=14&ll=37.8965712,-4.3835885"
  },
  {
    "municipio": "Cabra",
    "provincia": "Córdoba",
    "comunidad": "Andalucía",
    "latitud": "37.4743664",
    "longitud": "-4.4259306",
    "Enlace Google Maps": "http://maps.google.es/maps?z=14&ll=37.4743664,-4.4259306"
  },
  {
    "municipio": "Cañete de las Torres",
    "provincia": "Córdoba",
    "comunidad": "Andalucía",
    "latitud": "37.8674095",
    "longitud": "-4.3188186",
    "Enlace Google Maps": "http://maps.google.es/maps?z=14&ll=37.8674095,-4.3188186"
  },
  {
    "municipio": "Carcabuey",
    "provincia": "Córdoba",
    "comunidad": "Andalucía",
    "latitud": "37.4435913",
    "longitud": "-4.2734363",
    "Enlace Google Maps": "http://maps.google.es/maps?z=14&ll=37.4435913,-4.2734363"
  },
  {
    "municipio": "Cardeña",
    "provincia": "Córdoba",
    "comunidad": "Andalucía",
    "latitud": "38.2704645",
    "longitud": "-4.3237298",
    "Enlace Google Maps": "http://maps.google.es/maps?z=14&ll=38.2704645,-4.3237298"
  },
  {
    "municipio": "Carlota, La",
    "provincia": "Córdoba",
    "comunidad": "Andalucía",
    "latitud": "37.6736147",
    "longitud": "-4.9325533",
    "Enlace Google Maps": "http://maps.google.es/maps?z=14&ll=37.6736147,-4.9325533"
  },
  {
    "municipio": "Carpio, El",
    "provincia": "Córdoba",
    "comunidad": "Andalucía",
    "latitud": "37.8809947",
    "longitud": "-4.7760887",
    "Enlace Google Maps": "http://maps.google.es/maps?z=14&ll=37.8809947,-4.7760887"
  },
  {
    "municipio": "Castro del Río",
    "provincia": "Córdoba",
    "comunidad": "Andalucía",
    "latitud": "37.6886366",
    "longitud": "-4.4815787",
    "Enlace Google Maps": "http://maps.google.es/maps?z=14&ll=37.6886366,-4.4815787"
  },
  {
    "municipio": "Conquista",
    "provincia": "Córdoba",
    "comunidad": "Andalucía",
    "latitud": "38.4084439",
    "longitud": "-4.5009684",
    "Enlace Google Maps": "http://maps.google.es/maps?z=14&ll=38.4084439,-4.5009684"
  },
  {
    "municipio": "Córdoba",
    "provincia": "Córdoba",
    "comunidad": "Andalucía",
    "latitud": "37.8847267",
    "longitud": "-4.7791517",
    "Enlace Google Maps": "http://maps.google.es/maps?z=14&ll=37.8847267,-4.7791517"
  },
  {
    "municipio": "Doña Mencía",
    "provincia": "Córdoba",
    "comunidad": "Andalucía",
    "latitud": "37.5545698",
    "longitud": "-4.3576025",
    "Enlace Google Maps": "http://maps.google.es/maps?z=14&ll=37.5545698,-4.3576025"
  },
  {
    "municipio": "Dos Torres",
    "provincia": "Córdoba",
    "comunidad": "Andalucía",
    "latitud": "38.4452447",
    "longitud": "-4.8949322",
    "Enlace Google Maps": "http://maps.google.es/maps?z=14&ll=38.4452447,-4.8949322"
  },
  {
    "municipio": "Encinas Reales",
    "provincia": "Córdoba",
    "comunidad": "Andalucía",
    "latitud": "37.2748827",
    "longitud": "-4.4897172",
    "Enlace Google Maps": "http://maps.google.es/maps?z=14&ll=37.2748827,-4.4897172"
  },
  {
    "municipio": "Espejo",
    "provincia": "Córdoba",
    "comunidad": "Andalucía",
    "latitud": "37.6821089",
    "longitud": "-4.5523629",
    "Enlace Google Maps": "http://maps.google.es/maps?z=14&ll=37.6821089,-4.5523629"
  },
  {
    "municipio": "Espiel",
    "provincia": "Córdoba",
    "comunidad": "Andalucía",
    "latitud": "38.1886516",
    "longitud": "-5.0182019",
    "Enlace Google Maps": "http://maps.google.es/maps?z=14&ll=38.1886516,-5.0182019"
  },
  {
    "municipio": "Fernán-Núñez",
    "provincia": "Córdoba",
    "comunidad": "Andalucía",
    "latitud": "37.6722582",
    "longitud": "-4.7239938",
    "Enlace Google Maps": "http://maps.google.es/maps?z=14&ll=37.6722582,-4.7239938"
  },
  {
    "municipio": "Fuente la Lancha",
    "provincia": "Córdoba",
    "comunidad": "Andalucía",
    "latitud": "38.4225672",
    "longitud": "-5.0489061",
    "Enlace Google Maps": "http://maps.google.es/maps?z=14&ll=38.4225672,-5.0489061"
  },
  {
    "municipio": "Fuente Obejuna",
    "provincia": "Córdoba",
    "comunidad": "Andalucía",
    "latitud": "38.2667497",
    "longitud": "-5.4198339",
    "Enlace Google Maps": "http://maps.google.es/maps?z=14&ll=38.2667497,-5.4198339"
  },
  {
    "municipio": "Fuente Palmera",
    "provincia": "Córdoba",
    "comunidad": "Andalucía",
    "latitud": "37.703189",
    "longitud": "-5.1039039",
    "Enlace Google Maps": "http://maps.google.es/maps?z=14&ll=37.703189,-5.1039039"
  },
  {
    "municipio": "Fuente-Tójar",
    "provincia": "Córdoba",
    "comunidad": "Andalucía",
    "latitud": "37.5116266",
    "longitud": "-4.1480195",
    "Enlace Google Maps": "http://maps.google.es/maps?z=14&ll=37.5116266,-4.1480195"
  },
  {
    "municipio": "Granjuela, La",
    "provincia": "Córdoba",
    "comunidad": "Andalucía",
    "latitud": "38.3711006",
    "longitud": "-5.3514363",
    "Enlace Google Maps": "http://maps.google.es/maps?z=14&ll=38.3711006,-5.3514363"
  },
  {
    "municipio": "Guadalcázar",
    "provincia": "Córdoba",
    "comunidad": "Andalucía",
    "latitud": "37.7575517",
    "longitud": "-4.9446297",
    "Enlace Google Maps": "http://maps.google.es/maps?z=14&ll=37.7575517,-4.9446297"
  },
  {
    "municipio": "Guijo, El",
    "provincia": "Córdoba",
    "comunidad": "Andalucía",
    "latitud": "38.4962928",
    "longitud": "-4.782716",
    "Enlace Google Maps": "http://maps.google.es/maps?z=14&ll=38.4962928,-4.782716"
  },
  {
    "municipio": "Hinojosa del Duque",
    "provincia": "Córdoba",
    "comunidad": "Andalucía",
    "latitud": "38.5009912",
    "longitud": "-5.1483328",
    "Enlace Google Maps": "http://maps.google.es/maps?z=14&ll=38.5009912,-5.1483328"
  },
  {
    "municipio": "Hornachuelos",
    "provincia": "Córdoba",
    "comunidad": "Andalucía",
    "latitud": "37.8308411",
    "longitud": "-5.2429845",
    "Enlace Google Maps": "http://maps.google.es/maps?z=14&ll=37.8308411,-5.2429845"
  },
  {
    "municipio": "Iznájar",
    "provincia": "Córdoba",
    "comunidad": "Andalucía",
    "latitud": "37.2572569",
    "longitud": "-4.3084231",
    "Enlace Google Maps": "http://maps.google.es/maps?z=14&ll=37.2572569,-4.3084231"
  },
  {
    "municipio": "Lucena",
    "provincia": "Córdoba",
    "comunidad": "Andalucía",
    "latitud": "37.4087293",
    "longitud": "-4.4855978",
    "Enlace Google Maps": "http://maps.google.es/maps?z=14&ll=37.4087293,-4.4855978"
  },
  {
    "municipio": "Luque",
    "provincia": "Córdoba",
    "comunidad": "Andalucía",
    "latitud": "37.5593227",
    "longitud": "-4.2765229",
    "Enlace Google Maps": "http://maps.google.es/maps?z=14&ll=37.5593227,-4.2765229"
  },
  {
    "municipio": "Montalbán de Córdoba",
    "provincia": "Córdoba",
    "comunidad": "Andalucía",
    "latitud": "37.5829208",
    "longitud": "-4.7496987",
    "Enlace Google Maps": "http://maps.google.es/maps?z=14&ll=37.5829208,-4.7496987"
  },
  {
    "municipio": "Montemayor",
    "provincia": "Córdoba",
    "comunidad": "Andalucía",
    "latitud": "37.6486166",
    "longitud": "-4.698889",
    "Enlace Google Maps": "http://maps.google.es/maps?z=14&ll=37.6486166,-4.698889"
  },
  {
    "municipio": "Montilla",
    "provincia": "Córdoba",
    "comunidad": "Andalucía",
    "latitud": "37.5896304",
    "longitud": "-4.6383126",
    "Enlace Google Maps": "http://maps.google.es/maps?z=14&ll=37.5896304,-4.6383126"
  },
  {
    "municipio": "Montoro",
    "provincia": "Córdoba",
    "comunidad": "Andalucía",
    "latitud": "38.0261701",
    "longitud": "-4.381874",
    "Enlace Google Maps": "http://maps.google.es/maps?z=14&ll=38.0261701,-4.381874"
  },
  {
    "municipio": "Monturque",
    "provincia": "Córdoba",
    "comunidad": "Andalucía",
    "latitud": "37.4733257",
    "longitud": "-4.5817131",
    "Enlace Google Maps": "http://maps.google.es/maps?z=14&ll=37.4733257,-4.5817131"
  },
  {
    "municipio": "Moriles",
    "provincia": "Córdoba",
    "comunidad": "Andalucía",
    "latitud": "37.4352591",
    "longitud": "-4.6087668",
    "Enlace Google Maps": "http://maps.google.es/maps?z=14&ll=37.4352591,-4.6087668"
  },
  {
    "municipio": "Nueva Carteya",
    "provincia": "Córdoba",
    "comunidad": "Andalucía",
    "latitud": "37.5856614",
    "longitud": "-4.4672913",
    "Enlace Google Maps": "http://maps.google.es/maps?z=14&ll=37.5856614,-4.4672913"
  },
  {
    "municipio": "Obejo",
    "provincia": "Córdoba",
    "comunidad": "Andalucía",
    "latitud": "38.1343305",
    "longitud": "-4.8005056",
    "Enlace Google Maps": "http://maps.google.es/maps?z=14&ll=38.1343305,-4.8005056"
  },
  {
    "municipio": "Palenciana",
    "provincia": "Córdoba",
    "comunidad": "Andalucía",
    "latitud": "37.2492033",
    "longitud": "-4.5836511",
    "Enlace Google Maps": "http://maps.google.es/maps?z=14&ll=37.2492033,-4.5836511"
  },
  {
    "municipio": "Palma del Río",
    "provincia": "Córdoba",
    "comunidad": "Andalucía",
    "latitud": "37.7016346",
    "longitud": "-5.2837669",
    "Enlace Google Maps": "http://maps.google.es/maps?z=14&ll=37.7016346,-5.2837669"
  },
  {
    "municipio": "Pedro Abad",
    "provincia": "Córdoba",
    "comunidad": "Andalucía",
    "latitud": "37.9670756",
    "longitud": "-4.4572259",
    "Enlace Google Maps": "http://maps.google.es/maps?z=14&ll=37.9670756,-4.4572259"
  },
  {
    "municipio": "Pedroche",
    "provincia": "Córdoba",
    "comunidad": "Andalucía",
    "latitud": "38.4287313",
    "longitud": "-4.7634378",
    "Enlace Google Maps": "http://maps.google.es/maps?z=14&ll=38.4287313,-4.7634378"
  },
  {
    "municipio": "Peñarroya-Pueblonuevo",
    "provincia": "Córdoba",
    "comunidad": "Andalucía",
    "latitud": "38.3030394",
    "longitud": "-5.2728515",
    "Enlace Google Maps": "http://maps.google.es/maps?z=14&ll=38.3030394,-5.2728515"
  },
  {
    "municipio": "Posadas",
    "provincia": "Córdoba",
    "comunidad": "Andalucía",
    "latitud": "37.8004118",
    "longitud": "-5.1070381",
    "Enlace Google Maps": "http://maps.google.es/maps?z=14&ll=37.8004118,-5.1070381"
  },
  {
    "municipio": "Pozoblanco",
    "provincia": "Córdoba",
    "comunidad": "Andalucía",
    "latitud": "38.3774183",
    "longitud": "-4.8483757",
    "Enlace Google Maps": "http://maps.google.es/maps?z=14&ll=38.3774183,-4.8483757"
  },
  {
    "municipio": "Priego de Córdoba",
    "provincia": "Córdoba",
    "comunidad": "Andalucía",
    "latitud": "37.4388966",
    "longitud": "-4.1948395",
    "Enlace Google Maps": "http://maps.google.es/maps?z=14&ll=37.4388966,-4.1948395"
  },
  {
    "municipio": "Puente Genil",
    "provincia": "Córdoba",
    "comunidad": "Andalucía",
    "latitud": "37.3905074",
    "longitud": "-4.7704654",
    "Enlace Google Maps": "http://maps.google.es/maps?z=14&ll=37.3905074,-4.7704654"
  },
  {
    "municipio": "Rambla, La",
    "provincia": "Córdoba",
    "comunidad": "Andalucía",
    "latitud": "37.6081611",
    "longitud": "-4.7413194",
    "Enlace Google Maps": "http://maps.google.es/maps?z=14&ll=37.6081611,-4.7413194"
  },
  {
    "municipio": "Rute",
    "provincia": "Córdoba",
    "comunidad": "Andalucía",
    "latitud": "37.3258655",
    "longitud": "-4.3713007",
    "Enlace Google Maps": "http://maps.google.es/maps?z=14&ll=37.3258655,-4.3713007"
  },
  {
    "municipio": "San Sebastián de los Ballesteros",
    "provincia": "Córdoba",
    "comunidad": "Andalucía",
    "latitud": "37.6549298",
    "longitud": "-4.8241568",
    "Enlace Google Maps": "http://maps.google.es/maps?z=14&ll=37.6549298,-4.8241568"
  },
  {
    "municipio": "Santa Eufemia",
    "provincia": "Córdoba",
    "comunidad": "Andalucía",
    "latitud": "38.5954453",
    "longitud": "-4.9027651",
    "Enlace Google Maps": "http://maps.google.es/maps?z=14&ll=38.5954453,-4.9027651"
  },
  {
    "municipio": "Santaella",
    "provincia": "Córdoba",
    "comunidad": "Andalucía",
    "latitud": "37.5662722",
    "longitud": "-4.8450941",
    "Enlace Google Maps": "http://maps.google.es/maps?z=14&ll=37.5662722,-4.8450941"
  },
  {
    "municipio": "Torrecampo",
    "provincia": "Córdoba",
    "comunidad": "Andalucía",
    "latitud": "38.4751014",
    "longitud": "-4.6794562",
    "Enlace Google Maps": "http://maps.google.es/maps?z=14&ll=38.4751014,-4.6794562"
  },
  {
    "municipio": "Valenzuela",
    "provincia": "Córdoba",
    "comunidad": "Andalucía",
    "latitud": "37.775081",
    "longitud": "-4.2198417",
    "Enlace Google Maps": "http://maps.google.es/maps?z=14&ll=37.775081,-4.2198417"
  },
  {
    "municipio": "Valsequillo",
    "provincia": "Córdoba",
    "comunidad": "Andalucía",
    "latitud": "38.4049767",
    "longitud": "-5.3516797",
    "Enlace Google Maps": "http://maps.google.es/maps?z=14&ll=38.4049767,-5.3516797"
  },
  {
    "municipio": "Victoria, La",
    "provincia": "Córdoba",
    "comunidad": "Andalucía",
    "latitud": "37.8832397",
    "longitud": "-4.7849611",
    "Enlace Google Maps": "http://maps.google.es/maps?z=14&ll=37.8832397,-4.7849611"
  },
  {
    "municipio": "Villa del Río",
    "provincia": "Córdoba",
    "comunidad": "Andalucía",
    "latitud": "37.9822715",
    "longitud": "-4.2908778",
    "Enlace Google Maps": "http://maps.google.es/maps?z=14&ll=37.9822715,-4.2908778"
  },
  {
    "municipio": "Villafranca de Córdoba",
    "provincia": "Córdoba",
    "comunidad": "Andalucía",
    "latitud": "37.9619328",
    "longitud": "-4.5457276",
    "Enlace Google Maps": "http://maps.google.es/maps?z=14&ll=37.9619328,-4.5457276"
  },
  {
    "municipio": "Villaharta",
    "provincia": "Córdoba",
    "comunidad": "Andalucía",
    "latitud": "38.1395072",
    "longitud": "-4.9030518",
    "Enlace Google Maps": "http://maps.google.es/maps?z=14&ll=38.1395072,-4.9030518"
  },
  {
    "municipio": "Villanueva de Córdoba",
    "provincia": "Córdoba",
    "comunidad": "Andalucía",
    "latitud": "38.3227873",
    "longitud": "-4.628341",
    "Enlace Google Maps": "http://maps.google.es/maps?z=14&ll=38.3227873,-4.628341"
  },
  {
    "municipio": "Villanueva del Duque",
    "provincia": "Córdoba",
    "comunidad": "Andalucía",
    "latitud": "38.3929751",
    "longitud": "-5.0001322",
    "Enlace Google Maps": "http://maps.google.es/maps?z=14&ll=38.3929751,-5.0001322"
  },
  {
    "municipio": "Villanueva del Rey",
    "provincia": "Córdoba",
    "comunidad": "Andalucía",
    "latitud": "38.1996444",
    "longitud": "-5.1514426",
    "Enlace Google Maps": "http://maps.google.es/maps?z=14&ll=38.1996444,-5.1514426"
  },
  {
    "municipio": "Villaralto",
    "provincia": "Córdoba",
    "comunidad": "Andalucía",
    "latitud": "38.4557088",
    "longitud": "-4.9843712",
    "Enlace Google Maps": "http://maps.google.es/maps?z=14&ll=38.4557088,-4.9843712"
  },
  {
    "municipio": "Villaviciosa de Córdoba",
    "provincia": "Córdoba",
    "comunidad": "Andalucía",
    "latitud": "38.0759755",
    "longitud": "-5.014214",
    "Enlace Google Maps": "http://maps.google.es/maps?z=14&ll=38.0759755,-5.014214"
  },
  {
    "municipio": "Viso, El",
    "provincia": "Córdoba",
    "comunidad": "Andalucía",
    "latitud": "38.9960388",
    "longitud": "-3.3898994",
    "Enlace Google Maps": "http://maps.google.es/maps?z=14&ll=38.9960388,-3.3898994"
  },
  {
    "municipio": "Zuheros",
    "provincia": "Córdoba",
    "comunidad": "Andalucía",
    "latitud": "37.5431369",
    "longitud": "-4.3164148",
    "Enlace Google Maps": "http://maps.google.es/maps?z=14&ll=37.5431369,-4.3164148"
  },
  {
    "municipio": "Agrón",
    "provincia": "Granada",
    "comunidad": "Andalucía",
    "latitud": "37.0305837",
    "longitud": "-3.8297243",
    "Enlace Google Maps": "http://maps.google.es/maps?z=14&ll=37.0305837,-3.8297243"
  },
  {
    "municipio": "Alamedilla",
    "provincia": "Granada",
    "comunidad": "Andalucía",
    "latitud": "37.5817402",
    "longitud": "-3.2443093",
    "Enlace Google Maps": "http://maps.google.es/maps?z=14&ll=37.5817402,-3.2443093"
  },
  {
    "municipio": "Albolote",
    "provincia": "Granada",
    "comunidad": "Andalucía",
    "latitud": "37.2308556",
    "longitud": "-3.6574147",
    "Enlace Google Maps": "http://maps.google.es/maps?z=14&ll=37.2308556,-3.6574147"
  },
  {
    "municipio": "Albondón",
    "provincia": "Granada",
    "comunidad": "Andalucía",
    "latitud": "36.8272885",
    "longitud": "-3.2108134",
    "Enlace Google Maps": "http://maps.google.es/maps?z=14&ll=36.8272885,-3.2108134"
  },
  {
    "municipio": "Albuñán",
    "provincia": "Granada",
    "comunidad": "Andalucía",
    "latitud": "37.2271916",
    "longitud": "-3.1338925",
    "Enlace Google Maps": "http://maps.google.es/maps?z=14&ll=37.2271916,-3.1338925"
  },
  {
    "municipio": "Albuñol",
    "provincia": "Granada",
    "comunidad": "Andalucía",
    "latitud": "36.7912509",
    "longitud": "-3.2034848",
    "Enlace Google Maps": "http://maps.google.es/maps?z=14&ll=36.7912509,-3.2034848"
  },
  {
    "municipio": "Albuñuelas",
    "provincia": "Granada",
    "comunidad": "Andalucía",
    "latitud": "36.9282047",
    "longitud": "-3.6314718",
    "Enlace Google Maps": "http://maps.google.es/maps?z=14&ll=36.9282047,-3.6314718"
  },
  {
    "municipio": "Aldeire",
    "provincia": "Granada",
    "comunidad": "Andalucía",
    "latitud": "37.1626339",
    "longitud": "-3.0724878",
    "Enlace Google Maps": "http://maps.google.es/maps?z=14&ll=37.1626339,-3.0724878"
  },
  {
    "municipio": "Alfacar",
    "provincia": "Granada",
    "comunidad": "Andalucía",
    "latitud": "37.2365708",
    "longitud": "-3.5706536",
    "Enlace Google Maps": "http://maps.google.es/maps?z=14&ll=37.2365708,-3.5706536"
  },
  {
    "municipio": "Algarinejo",
    "provincia": "Granada",
    "comunidad": "Andalucía",
    "latitud": "37.324917",
    "longitud": "-4.1588459",
    "Enlace Google Maps": "http://maps.google.es/maps?z=14&ll=37.324917,-4.1588459"
  },
  {
    "municipio": "Alhama de Granada",
    "provincia": "Granada",
    "comunidad": "Andalucía",
    "latitud": "37.0025184",
    "longitud": "-3.9883887",
    "Enlace Google Maps": "http://maps.google.es/maps?z=14&ll=37.0025184,-3.9883887"
  },
  {
    "municipio": "Alhendín",
    "provincia": "Granada",
    "comunidad": "Andalucía",
    "latitud": "37.1075985",
    "longitud": "-3.6455836",
    "Enlace Google Maps": "http://maps.google.es/maps?z=14&ll=37.1075985,-3.6455836"
  },
  {
    "municipio": "Alicún de Ortega",
    "provincia": "Granada",
    "comunidad": "Andalucía",
    "latitud": "37.6096762",
    "longitud": "-3.1379865",
    "Enlace Google Maps": "http://maps.google.es/maps?z=14&ll=37.6096762,-3.1379865"
  },
  {
    "municipio": "Almegíjar",
    "provincia": "Granada",
    "comunidad": "Andalucía",
    "latitud": "36.9024471",
    "longitud": "-3.299801",
    "Enlace Google Maps": "http://maps.google.es/maps?z=14&ll=36.9024471,-3.299801"
  },
  {
    "municipio": "Almuñécar",
    "provincia": "Granada",
    "comunidad": "Andalucía",
    "latitud": "36.7345403",
    "longitud": "-3.6907361",
    "Enlace Google Maps": "http://maps.google.es/maps?z=14&ll=36.7345403,-3.6907361"
  },
  {
    "municipio": "Alpujarra de la Sierra",
    "provincia": "Granada",
    "comunidad": "Andalucía",
    "latitud": "36.981502",
    "longitud": "-3.157129",
    "Enlace Google Maps": "http://maps.google.es/maps?z=14&ll=36.981502,-3.157129"
  },
  {
    "municipio": "Alquife",
    "provincia": "Granada",
    "comunidad": "Andalucía",
    "latitud": "37.1798276",
    "longitud": "-3.116288",
    "Enlace Google Maps": "http://maps.google.es/maps?z=14&ll=37.1798276,-3.116288"
  },
  {
    "municipio": "Arenas del Rey",
    "provincia": "Granada",
    "comunidad": "Andalucía",
    "latitud": "36.9577105",
    "longitud": "-3.8943227",
    "Enlace Google Maps": "http://maps.google.es/maps?z=14&ll=36.9577105,-3.8943227"
  },
  {
    "municipio": "Armilla",
    "provincia": "Granada",
    "comunidad": "Andalucía",
    "latitud": "37.1401032",
    "longitud": "-3.6179814",
    "Enlace Google Maps": "http://maps.google.es/maps?z=14&ll=37.1401032,-3.6179814"
  },
  {
    "municipio": "Atarfe",
    "provincia": "Granada",
    "comunidad": "Andalucía",
    "latitud": "37.2228969",
    "longitud": "-3.6874157",
    "Enlace Google Maps": "http://maps.google.es/maps?z=14&ll=37.2228969,-3.6874157"
  },
  {
    "municipio": "Baza",
    "provincia": "Granada",
    "comunidad": "Andalucía",
    "latitud": "37.490651",
    "longitud": "-2.7744732",
    "Enlace Google Maps": "http://maps.google.es/maps?z=14&ll=37.490651,-2.7744732"
  },
  {
    "municipio": "Beas de Granada",
    "provincia": "Granada",
    "comunidad": "Andalucía",
    "latitud": "37.2191625",
    "longitud": "-3.4817368",
    "Enlace Google Maps": "http://maps.google.es/maps?z=14&ll=37.2191625,-3.4817368"
  },
  {
    "municipio": "Beas de Guadix",
    "provincia": "Granada",
    "comunidad": "Andalucía",
    "latitud": "37.2793988",
    "longitud": "-3.2059762",
    "Enlace Google Maps": "http://maps.google.es/maps?z=14&ll=37.2793988,-3.2059762"
  },
  {
    "municipio": "Benalúa",
    "provincia": "Granada",
    "comunidad": "Andalucía",
    "latitud": "37.4275815",
    "longitud": "-3.6834733",
    "Enlace Google Maps": "http://maps.google.es/maps?z=14&ll=37.4275815,-3.6834733"
  },
  {
    "municipio": "Benalúa de las Villas",
    "provincia": "Granada",
    "comunidad": "Andalucía",
    "latitud": "37.4275815",
    "longitud": "-3.6834733",
    "Enlace Google Maps": "http://maps.google.es/maps?z=14&ll=37.4275815,-3.6834733"
  },
  {
    "municipio": "Benamaurel",
    "provincia": "Granada",
    "comunidad": "Andalucía",
    "latitud": "37.6091333",
    "longitud": "-2.6992135",
    "Enlace Google Maps": "http://maps.google.es/maps?z=14&ll=37.6091333,-2.6992135"
  },
  {
    "municipio": "Bérchules",
    "provincia": "Granada",
    "comunidad": "Andalucía",
    "latitud": "36.9767226",
    "longitud": "-3.1903792",
    "Enlace Google Maps": "http://maps.google.es/maps?z=14&ll=36.9767226,-3.1903792"
  },
  {
    "municipio": "Bubión",
    "provincia": "Granada",
    "comunidad": "Andalucía",
    "latitud": "36.9488258",
    "longitud": "-3.3567415",
    "Enlace Google Maps": "http://maps.google.es/maps?z=14&ll=36.9488258,-3.3567415"
  },
  {
    "municipio": "Busquístar",
    "provincia": "Granada",
    "comunidad": "Andalucía",
    "latitud": "36.937713",
    "longitud": "-3.2948455",
    "Enlace Google Maps": "http://maps.google.es/maps?z=14&ll=36.937713,-3.2948455"
  },
  {
    "municipio": "Cacín",
    "provincia": "Granada",
    "comunidad": "Andalucía",
    "latitud": "37.059949",
    "longitud": "-3.9168902",
    "Enlace Google Maps": "http://maps.google.es/maps?z=14&ll=37.059949,-3.9168902"
  },
  {
    "municipio": "Cádiar",
    "provincia": "Granada",
    "comunidad": "Andalucía",
    "latitud": "36.9467261",
    "longitud": "-3.1805461",
    "Enlace Google Maps": "http://maps.google.es/maps?z=14&ll=36.9467261,-3.1805461"
  },
  {
    "municipio": "Cájar",
    "provincia": "Granada",
    "comunidad": "Andalucía",
    "latitud": "37.1342212",
    "longitud": "-3.5706177",
    "Enlace Google Maps": "http://maps.google.es/maps?z=14&ll=37.1342212,-3.5706177"
  },
  {
    "municipio": "Calahorra, La",
    "provincia": "Granada",
    "comunidad": "Andalucía",
    "latitud": "37.1813647",
    "longitud": "-3.0645132",
    "Enlace Google Maps": "http://maps.google.es/maps?z=14&ll=37.1813647,-3.0645132"
  },
  {
    "municipio": "Calicasas",
    "provincia": "Granada",
    "comunidad": "Andalucía",
    "latitud": "37.2732911",
    "longitud": "-3.6181997",
    "Enlace Google Maps": "http://maps.google.es/maps?z=14&ll=37.2732911,-3.6181997"
  },
  {
    "municipio": "Campotéjar",
    "provincia": "Granada",
    "comunidad": "Andalucía",
    "latitud": "37.4813117",
    "longitud": "-3.6164965",
    "Enlace Google Maps": "http://maps.google.es/maps?z=14&ll=37.4813117,-3.6164965"
  },
  {
    "municipio": "Caniles",
    "provincia": "Granada",
    "comunidad": "Andalucía",
    "latitud": "37.4362651",
    "longitud": "-2.7224009",
    "Enlace Google Maps": "http://maps.google.es/maps?z=14&ll=37.4362651,-2.7224009"
  },
  {
    "municipio": "Cáñar",
    "provincia": "Granada",
    "comunidad": "Andalucía",
    "latitud": "36.9266113",
    "longitud": "-3.4282353",
    "Enlace Google Maps": "http://maps.google.es/maps?z=14&ll=36.9266113,-3.4282353"
  },
  {
    "municipio": "Capileira",
    "provincia": "Granada",
    "comunidad": "Andalucía",
    "latitud": "36.961223",
    "longitud": "-3.3586543",
    "Enlace Google Maps": "http://maps.google.es/maps?z=14&ll=36.961223,-3.3586543"
  },
  {
    "municipio": "Carataunas",
    "provincia": "Granada",
    "comunidad": "Andalucía",
    "latitud": "36.9228745",
    "longitud": "-3.408202",
    "Enlace Google Maps": "http://maps.google.es/maps?z=14&ll=36.9228745,-3.408202"
  },
  {
    "municipio": "Cástaras",
    "provincia": "Granada",
    "comunidad": "Andalucía",
    "latitud": "36.9316856",
    "longitud": "-3.2537329",
    "Enlace Google Maps": "http://maps.google.es/maps?z=14&ll=36.9316856,-3.2537329"
  },
  {
    "municipio": "Castilléjar",
    "provincia": "Granada",
    "comunidad": "Andalucía",
    "latitud": "37.7147011",
    "longitud": "-2.6429664",
    "Enlace Google Maps": "http://maps.google.es/maps?z=14&ll=37.7147011,-2.6429664"
  },
  {
    "municipio": "Castril",
    "provincia": "Granada",
    "comunidad": "Andalucía",
    "latitud": "37.7957299",
    "longitud": "-2.7790884",
    "Enlace Google Maps": "http://maps.google.es/maps?z=14&ll=37.7957299,-2.7790884"
  },
  {
    "municipio": "Cenes de la Vega",
    "provincia": "Granada",
    "comunidad": "Andalucía",
    "latitud": "37.1593111",
    "longitud": "-3.537524",
    "Enlace Google Maps": "http://maps.google.es/maps?z=14&ll=37.1593111,-3.537524"
  },
  {
    "municipio": "Chauchina",
    "provincia": "Granada",
    "comunidad": "Andalucía",
    "latitud": "37.1892506",
    "longitud": "-3.7751928",
    "Enlace Google Maps": "http://maps.google.es/maps?z=14&ll=37.1892506,-3.7751928"
  },
  {
    "municipio": "Chimeneas",
    "provincia": "Granada",
    "comunidad": "Andalucía",
    "latitud": "37.1313737",
    "longitud": "-3.8231979",
    "Enlace Google Maps": "http://maps.google.es/maps?z=14&ll=37.1313737,-3.8231979"
  },
  {
    "municipio": "Churriana de la Vega",
    "provincia": "Granada",
    "comunidad": "Andalucía",
    "latitud": "37.1477665",
    "longitud": "-3.6459501",
    "Enlace Google Maps": "http://maps.google.es/maps?z=14&ll=37.1477665,-3.6459501"
  },
  {
    "municipio": "Cijuela",
    "provincia": "Granada",
    "comunidad": "Andalucía",
    "latitud": "37.1998939",
    "longitud": "-3.8108008",
    "Enlace Google Maps": "http://maps.google.es/maps?z=14&ll=37.1998939,-3.8108008"
  },
  {
    "municipio": "Cogollos de Guadix",
    "provincia": "Granada",
    "comunidad": "Andalucía",
    "latitud": "37.2244319",
    "longitud": "-3.161336",
    "Enlace Google Maps": "http://maps.google.es/maps?z=14&ll=37.2244319,-3.161336"
  },
  {
    "municipio": "Cogollos de la Vega",
    "provincia": "Granada",
    "comunidad": "Andalucía",
    "latitud": "37.2748581",
    "longitud": "-3.5729081",
    "Enlace Google Maps": "http://maps.google.es/maps?z=14&ll=37.2748581,-3.5729081"
  },
  {
    "municipio": "Colomera",
    "provincia": "Granada",
    "comunidad": "Andalucía",
    "latitud": "37.372055",
    "longitud": "-3.7138201",
    "Enlace Google Maps": "http://maps.google.es/maps?z=14&ll=37.372055,-3.7138201"
  },
  {
    "municipio": "Cortes de Baza",
    "provincia": "Granada",
    "comunidad": "Andalucía",
    "latitud": "37.6549309",
    "longitud": "-2.7699166",
    "Enlace Google Maps": "http://maps.google.es/maps?z=14&ll=37.6549309,-2.7699166"
  },
  {
    "municipio": "Cortes y Graena",
    "provincia": "Granada",
    "comunidad": "Andalucía",
    "latitud": "37.3036284",
    "longitud": "-3.2187772",
    "Enlace Google Maps": "http://maps.google.es/maps?z=14&ll=37.3036284,-3.2187772"
  },
  {
    "municipio": "Cuevas del Campo",
    "provincia": "Granada",
    "comunidad": "Andalucía",
    "latitud": "37.6084715",
    "longitud": "-2.9310328",
    "Enlace Google Maps": "http://maps.google.es/maps?z=14&ll=37.6084715,-2.9310328"
  },
  {
    "municipio": "Cúllar",
    "provincia": "Granada",
    "comunidad": "Andalucía",
    "latitud": "37.5836815",
    "longitud": "-2.576282",
    "Enlace Google Maps": "http://maps.google.es/maps?z=14&ll=37.5836815,-2.576282"
  },
  {
    "municipio": "Cúllar Vega",
    "provincia": "Granada",
    "comunidad": "Andalucía",
    "latitud": "37.1532664",
    "longitud": "-3.6704363",
    "Enlace Google Maps": "http://maps.google.es/maps?z=14&ll=37.1532664,-3.6704363"
  },
  {
    "municipio": "Darro",
    "provincia": "Granada",
    "comunidad": "Andalucía",
    "latitud": "37.3500171",
    "longitud": "-3.2925308",
    "Enlace Google Maps": "http://maps.google.es/maps?z=14&ll=37.3500171,-3.2925308"
  },
  {
    "municipio": "Dehesas de Guadix",
    "provincia": "Granada",
    "comunidad": "Andalucía",
    "latitud": "37.5886792",
    "longitud": "-3.1022784",
    "Enlace Google Maps": "http://maps.google.es/maps?z=14&ll=37.5886792,-3.1022784"
  },
  {
    "municipio": "Deifontes",
    "provincia": "Granada",
    "comunidad": "Andalucía",
    "latitud": "37.3252398",
    "longitud": "-3.5944841",
    "Enlace Google Maps": "http://maps.google.es/maps?z=14&ll=37.3252398,-3.5944841"
  },
  {
    "municipio": "Diezma",
    "provincia": "Granada",
    "comunidad": "Andalucía",
    "latitud": "37.3208517",
    "longitud": "-3.3316642",
    "Enlace Google Maps": "http://maps.google.es/maps?z=14&ll=37.3208517,-3.3316642"
  },
  {
    "municipio": "Dílar",
    "provincia": "Granada",
    "comunidad": "Andalucía",
    "latitud": "37.0749919",
    "longitud": "-3.6016243",
    "Enlace Google Maps": "http://maps.google.es/maps?z=14&ll=37.0749919,-3.6016243"
  },
  {
    "municipio": "Dólar",
    "provincia": "Granada",
    "comunidad": "Andalucía",
    "latitud": "37.1800367",
    "longitud": "-2.9895893",
    "Enlace Google Maps": "http://maps.google.es/maps?z=14&ll=37.1800367,-2.9895893"
  },
  {
    "municipio": "Dúdar",
    "provincia": "Granada",
    "comunidad": "Andalucía",
    "latitud": "37.1856639",
    "longitud": "-3.4844418",
    "Enlace Google Maps": "http://maps.google.es/maps?z=14&ll=37.1856639,-3.4844418"
  },
  {
    "municipio": "Dúrcal",
    "provincia": "Granada",
    "comunidad": "Andalucía",
    "latitud": "36.9879261",
    "longitud": "-3.5661601",
    "Enlace Google Maps": "http://maps.google.es/maps?z=14&ll=36.9879261,-3.5661601"
  },
  {
    "municipio": "Escúzar",
    "provincia": "Granada",
    "comunidad": "Andalucía",
    "latitud": "37.0625076",
    "longitud": "-3.7614993",
    "Enlace Google Maps": "http://maps.google.es/maps?z=14&ll=37.0625076,-3.7614993"
  },
  {
    "municipio": "Ferreira",
    "provincia": "Granada",
    "comunidad": "Andalucía",
    "latitud": "37.1722876",
    "longitud": "-3.0360835",
    "Enlace Google Maps": "http://maps.google.es/maps?z=14&ll=37.1722876,-3.0360835"
  },
  {
    "municipio": "Fonelas",
    "provincia": "Granada",
    "comunidad": "Andalucía",
    "latitud": "37.4134412",
    "longitud": "-3.1733438",
    "Enlace Google Maps": "http://maps.google.es/maps?z=14&ll=37.4134412,-3.1733438"
  },
  {
    "municipio": "Freila",
    "provincia": "Granada",
    "comunidad": "Andalucía",
    "latitud": "37.5286932",
    "longitud": "-2.9067948",
    "Enlace Google Maps": "http://maps.google.es/maps?z=14&ll=37.5286932,-2.9067948"
  },
  {
    "municipio": "Fuente Vaqueros",
    "provincia": "Granada",
    "comunidad": "Andalucía",
    "latitud": "37.2195731",
    "longitud": "-3.7830532",
    "Enlace Google Maps": "http://maps.google.es/maps?z=14&ll=37.2195731,-3.7830532"
  },
  {
    "municipio": "Gabias, Las",
    "provincia": "Granada",
    "comunidad": "Andalucía",
    "latitud": "37.1364238",
    "longitud": "-3.669147",
    "Enlace Google Maps": "http://maps.google.es/maps?z=14&ll=37.1364238,-3.669147"
  },
  {
    "municipio": "Galera",
    "provincia": "Granada",
    "comunidad": "Andalucía",
    "latitud": "37.7428844",
    "longitud": "-2.5511932",
    "Enlace Google Maps": "http://maps.google.es/maps?z=14&ll=37.7428844,-2.5511932"
  },
  {
    "municipio": "Gobernador",
    "provincia": "Granada",
    "comunidad": "Andalucía",
    "latitud": "37.4773659",
    "longitud": "-3.3204545",
    "Enlace Google Maps": "http://maps.google.es/maps?z=14&ll=37.4773659,-3.3204545"
  },
  {
    "municipio": "Gójar",
    "provincia": "Granada",
    "comunidad": "Andalucía",
    "latitud": "37.1044347",
    "longitud": "-3.6062034",
    "Enlace Google Maps": "http://maps.google.es/maps?z=14&ll=37.1044347,-3.6062034"
  },
  {
    "municipio": "Gor",
    "provincia": "Granada",
    "comunidad": "Andalucía",
    "latitud": "37.3695204",
    "longitud": "-2.969444",
    "Enlace Google Maps": "http://maps.google.es/maps?z=14&ll=37.3695204,-2.969444"
  },
  {
    "municipio": "Gorafe",
    "provincia": "Granada",
    "comunidad": "Andalucía",
    "latitud": "37.4790186",
    "longitud": "-3.0442747",
    "Enlace Google Maps": "http://maps.google.es/maps?z=14&ll=37.4790186,-3.0442747"
  },
  {
    "municipio": "Granada",
    "provincia": "Granada",
    "comunidad": "Andalucía",
    "latitud": "37.1764874",
    "longitud": "-3.5979291",
    "Enlace Google Maps": "http://maps.google.es/maps?z=14&ll=37.1764874,-3.5979291"
  },
  {
    "municipio": "Guadahortuna",
    "provincia": "Granada",
    "comunidad": "Andalucía",
    "latitud": "37.5565446",
    "longitud": "-3.4007134",
    "Enlace Google Maps": "http://maps.google.es/maps?z=14&ll=37.5565446,-3.4007134"
  },
  {
    "municipio": "Guadix",
    "provincia": "Granada",
    "comunidad": "Andalucía",
    "latitud": "37.3003963",
    "longitud": "-3.1345833",
    "Enlace Google Maps": "http://maps.google.es/maps?z=14&ll=37.3003963,-3.1345833"
  },
  {
    "municipio": "Guajares, Los",
    "provincia": "Granada",
    "comunidad": "Andalucía",
    "latitud": "36.8456748",
    "longitud": "-3.6116494",
    "Enlace Google Maps": "http://maps.google.es/maps?z=14&ll=36.8456748,-3.6116494"
  },
  {
    "municipio": "Gualchos",
    "provincia": "Granada",
    "comunidad": "Andalucía",
    "latitud": "36.7435675",
    "longitud": "-3.3898693",
    "Enlace Google Maps": "http://maps.google.es/maps?z=14&ll=36.7435675,-3.3898693"
  },
  {
    "municipio": "Güejar Sierra",
    "provincia": "Granada",
    "comunidad": "Andalucía",
    "latitud": "37.1598731",
    "longitud": "-3.4386534",
    "Enlace Google Maps": "http://maps.google.es/maps?z=14&ll=37.1598731,-3.4386534"
  },
  {
    "municipio": "Güevéjar",
    "provincia": "Granada",
    "comunidad": "Andalucía",
    "latitud": "37.2569789",
    "longitud": "-3.5976784",
    "Enlace Google Maps": "http://maps.google.es/maps?z=14&ll=37.2569789,-3.5976784"
  },
  {
    "municipio": "Huélago",
    "provincia": "Granada",
    "comunidad": "Andalucía",
    "latitud": "37.4198047",
    "longitud": "-3.2601462",
    "Enlace Google Maps": "http://maps.google.es/maps?z=14&ll=37.4198047,-3.2601462"
  },
  {
    "municipio": "Huéneja",
    "provincia": "Granada",
    "comunidad": "Andalucía",
    "latitud": "37.1769335",
    "longitud": "-2.9485955",
    "Enlace Google Maps": "http://maps.google.es/maps?z=14&ll=37.1769335,-2.9485955"
  },
  {
    "municipio": "Huéscar",
    "provincia": "Granada",
    "comunidad": "Andalucía",
    "latitud": "37.8094891",
    "longitud": "-2.5396631",
    "Enlace Google Maps": "http://maps.google.es/maps?z=14&ll=37.8094891,-2.5396631"
  },
  {
    "municipio": "Huétor de Santillán",
    "provincia": "Granada",
    "comunidad": "Andalucía",
    "latitud": "37.2182282",
    "longitud": "-3.5173991",
    "Enlace Google Maps": "http://maps.google.es/maps?z=14&ll=37.2182282,-3.5173991"
  },
  {
    "municipio": "Huétor Tájar",
    "provincia": "Granada",
    "comunidad": "Andalucía",
    "latitud": "37.1946309",
    "longitud": "-4.0471391",
    "Enlace Google Maps": "http://maps.google.es/maps?z=14&ll=37.1946309,-4.0471391"
  },
  {
    "municipio": "Huétor Vega",
    "provincia": "Granada",
    "comunidad": "Andalucía",
    "latitud": "37.1523809",
    "longitud": "-3.5759037",
    "Enlace Google Maps": "http://maps.google.es/maps?z=14&ll=37.1523809,-3.5759037"
  },
  {
    "municipio": "Illora",
    "provincia": "Granada",
    "comunidad": "Andalucía",
    "latitud": "37.2884253",
    "longitud": "-3.8797818",
    "Enlace Google Maps": "http://maps.google.es/maps?z=14&ll=37.2884253,-3.8797818"
  },
  {
    "municipio": "Itrabo",
    "provincia": "Granada",
    "comunidad": "Andalucía",
    "latitud": "36.7994851",
    "longitud": "-3.6387109",
    "Enlace Google Maps": "http://maps.google.es/maps?z=14&ll=36.7994851,-3.6387109"
  },
  {
    "municipio": "Iznalloz",
    "provincia": "Granada",
    "comunidad": "Andalucía",
    "latitud": "37.3927023",
    "longitud": "-3.5275488",
    "Enlace Google Maps": "http://maps.google.es/maps?z=14&ll=37.3927023,-3.5275488"
  },
  {
    "municipio": "Jayena",
    "provincia": "Granada",
    "comunidad": "Andalucía",
    "latitud": "36.9488256",
    "longitud": "-3.8228068",
    "Enlace Google Maps": "http://maps.google.es/maps?z=14&ll=36.9488256,-3.8228068"
  },
  {
    "municipio": "Jerez del Marquesado",
    "provincia": "Granada",
    "comunidad": "Andalucía",
    "latitud": "37.1838513",
    "longitud": "-3.1598715",
    "Enlace Google Maps": "http://maps.google.es/maps?z=14&ll=37.1838513,-3.1598715"
  },
  {
    "municipio": "Jete",
    "provincia": "Granada",
    "comunidad": "Andalucía",
    "latitud": "36.7973166",
    "longitud": "-3.6681513",
    "Enlace Google Maps": "http://maps.google.es/maps?z=14&ll=36.7973166,-3.6681513"
  },
  {
    "municipio": "Jun",
    "provincia": "Granada",
    "comunidad": "Andalucía",
    "latitud": "37.2206402",
    "longitud": "-3.5944298",
    "Enlace Google Maps": "http://maps.google.es/maps?z=14&ll=37.2206402,-3.5944298"
  },
  {
    "municipio": "Juviles",
    "provincia": "Granada",
    "comunidad": "Andalucía",
    "latitud": "36.948253",
    "longitud": "-3.2257882",
    "Enlace Google Maps": "http://maps.google.es/maps?z=14&ll=36.948253,-3.2257882"
  },
  {
    "municipio": "Láchar",
    "provincia": "Granada",
    "comunidad": "Andalucía",
    "latitud": "37.1950816",
    "longitud": "-3.8340638",
    "Enlace Google Maps": "http://maps.google.es/maps?z=14&ll=37.1950816,-3.8340638"
  },
  {
    "municipio": "Lanjarón",
    "provincia": "Granada",
    "comunidad": "Andalucía",
    "latitud": "36.9180647",
    "longitud": "-3.4804875",
    "Enlace Google Maps": "http://maps.google.es/maps?z=14&ll=36.9180647,-3.4804875"
  },
  {
    "municipio": "Lanteira",
    "provincia": "Granada",
    "comunidad": "Andalucía",
    "latitud": "37.1688973",
    "longitud": "-3.1385514",
    "Enlace Google Maps": "http://maps.google.es/maps?z=14&ll=37.1688973,-3.1385514"
  },
  {
    "municipio": "Lecrín",
    "provincia": "Granada",
    "comunidad": "Andalucía",
    "latitud": "36.9476953",
    "longitud": "-3.5503823",
    "Enlace Google Maps": "http://maps.google.es/maps?z=14&ll=36.9476953,-3.5503823"
  },
  {
    "municipio": "Lentegí",
    "provincia": "Granada",
    "comunidad": "Andalucía",
    "latitud": "36.8343061",
    "longitud": "-3.6744491",
    "Enlace Google Maps": "http://maps.google.es/maps?z=14&ll=36.8343061,-3.6744491"
  },
  {
    "municipio": "Lobras",
    "provincia": "Granada",
    "comunidad": "Andalucía",
    "latitud": "36.9278614",
    "longitud": "-3.2123061",
    "Enlace Google Maps": "http://maps.google.es/maps?z=14&ll=36.9278614,-3.2123061"
  },
  {
    "municipio": "Loja",
    "provincia": "Granada",
    "comunidad": "Andalucía",
    "latitud": "37.1688409",
    "longitud": "-4.1514712",
    "Enlace Google Maps": "http://maps.google.es/maps?z=14&ll=37.1688409,-4.1514712"
  },
  {
    "municipio": "Lugros",
    "provincia": "Granada",
    "comunidad": "Andalucía",
    "latitud": "37.2306884",
    "longitud": "-3.240909",
    "Enlace Google Maps": "http://maps.google.es/maps?z=14&ll=37.2306884,-3.240909"
  },
  {
    "municipio": "Lújar",
    "provincia": "Granada",
    "comunidad": "Andalucía",
    "latitud": "36.7876092",
    "longitud": "-3.4015629",
    "Enlace Google Maps": "http://maps.google.es/maps?z=14&ll=36.7876092,-3.4015629"
  },
  {
    "municipio": "Malahá, La",
    "provincia": "Granada",
    "comunidad": "Andalucía",
    "latitud": "37.1898223",
    "longitud": "-3.6293854",
    "Enlace Google Maps": "http://maps.google.es/maps?z=14&ll=37.1898223,-3.6293854"
  },
  {
    "municipio": "Maracena",
    "provincia": "Granada",
    "comunidad": "Andalucía",
    "latitud": "37.2056774",
    "longitud": "-3.636805",
    "Enlace Google Maps": "http://maps.google.es/maps?z=14&ll=37.2056774,-3.636805"
  },
  {
    "municipio": "Marchal",
    "provincia": "Granada",
    "comunidad": "Andalucía",
    "latitud": "37.2962012",
    "longitud": "-3.2023235",
    "Enlace Google Maps": "http://maps.google.es/maps?z=14&ll=37.2962012,-3.2023235"
  },
  {
    "municipio": "Moclín",
    "provincia": "Granada",
    "comunidad": "Andalucía",
    "latitud": "37.3415777",
    "longitud": "-3.7864222",
    "Enlace Google Maps": "http://maps.google.es/maps?z=14&ll=37.3415777,-3.7864222"
  },
  {
    "municipio": "Molvízar",
    "provincia": "Granada",
    "comunidad": "Andalucía",
    "latitud": "36.7868871",
    "longitud": "-3.6075183",
    "Enlace Google Maps": "http://maps.google.es/maps?z=14&ll=36.7868871,-3.6075183"
  },
  {
    "municipio": "Monachil",
    "provincia": "Granada",
    "comunidad": "Andalucía",
    "latitud": "37.1320894",
    "longitud": "-3.5394695",
    "Enlace Google Maps": "http://maps.google.es/maps?z=14&ll=37.1320894,-3.5394695"
  },
  {
    "municipio": "Montefrío",
    "provincia": "Granada",
    "comunidad": "Andalucía",
    "latitud": "37.3209691",
    "longitud": "-4.0113637",
    "Enlace Google Maps": "http://maps.google.es/maps?z=14&ll=37.3209691,-4.0113637"
  },
  {
    "municipio": "Montejícar",
    "provincia": "Granada",
    "comunidad": "Andalucía",
    "latitud": "37.5719655",
    "longitud": "-3.5046999",
    "Enlace Google Maps": "http://maps.google.es/maps?z=14&ll=37.5719655,-3.5046999"
  },
  {
    "municipio": "Montillana",
    "provincia": "Granada",
    "comunidad": "Andalucía",
    "latitud": "37.5012648",
    "longitud": "-3.6724229",
    "Enlace Google Maps": "http://maps.google.es/maps?z=14&ll=37.5012648,-3.6724229"
  },
  {
    "municipio": "Moraleda de Zafayona",
    "provincia": "Granada",
    "comunidad": "Andalucía",
    "latitud": "37.1697734",
    "longitud": "-3.9651468",
    "Enlace Google Maps": "http://maps.google.es/maps?z=14&ll=37.1697734,-3.9651468"
  },
  {
    "municipio": "Morelábor",
    "provincia": "Granada",
    "comunidad": "Andalucía",
    "latitud": "37.4333333",
    "longitud": "-3.3166667",
    "Enlace Google Maps": "http://maps.google.es/maps?z=14&ll=37.4333333,-3.3166667"
  },
  {
    "municipio": "Motril",
    "provincia": "Granada",
    "comunidad": "Andalucía",
    "latitud": "36.7446694",
    "longitud": "-3.5167184",
    "Enlace Google Maps": "http://maps.google.es/maps?z=14&ll=36.7446694,-3.5167184"
  },
  {
    "municipio": "Murtas",
    "provincia": "Granada",
    "comunidad": "Andalucía",
    "latitud": "36.8873746",
    "longitud": "-3.1089707",
    "Enlace Google Maps": "http://maps.google.es/maps?z=14&ll=36.8873746,-3.1089707"
  },
  {
    "municipio": "Nevada",
    "provincia": "Granada",
    "comunidad": "Andalucía",
    "latitud": "37",
    "longitud": "-3.0166667",
    "Enlace Google Maps": "http://maps.google.es/maps?z=14&ll=37,-3.0166667"
  },
  {
    "municipio": "Nigüelas",
    "provincia": "Granada",
    "comunidad": "Andalucía",
    "latitud": "36.9774118",
    "longitud": "-3.5393193",
    "Enlace Google Maps": "http://maps.google.es/maps?z=14&ll=36.9774118,-3.5393193"
  },
  {
    "municipio": "Nívar",
    "provincia": "Granada",
    "comunidad": "Andalucía",
    "latitud": "37.2579378",
    "longitud": "-3.5779179",
    "Enlace Google Maps": "http://maps.google.es/maps?z=14&ll=37.2579378,-3.5779179"
  },
  {
    "municipio": "Ogíjares",
    "provincia": "Granada",
    "comunidad": "Andalucía",
    "latitud": "37.1199066",
    "longitud": "-3.6079369",
    "Enlace Google Maps": "http://maps.google.es/maps?z=14&ll=37.1199066,-3.6079369"
  },
  {
    "municipio": "Orce",
    "provincia": "Granada",
    "comunidad": "Andalucía",
    "latitud": "37.7214083",
    "longitud": "-2.4794514",
    "Enlace Google Maps": "http://maps.google.es/maps?z=14&ll=37.7214083,-2.4794514"
  },
  {
    "municipio": "Órgiva",
    "provincia": "Granada",
    "comunidad": "Andalucía",
    "latitud": "36.9022391",
    "longitud": "-3.4239899",
    "Enlace Google Maps": "http://maps.google.es/maps?z=14&ll=36.9022391,-3.4239899"
  },
  {
    "municipio": "Otívar",
    "provincia": "Granada",
    "comunidad": "Andalucía",
    "latitud": "36.8149087",
    "longitud": "-3.6814974",
    "Enlace Google Maps": "http://maps.google.es/maps?z=14&ll=36.8149087,-3.6814974"
  },
  {
    "municipio": "Otura",
    "provincia": "Granada",
    "comunidad": "Andalucía",
    "latitud": "37.0943088",
    "longitud": "-3.6350731",
    "Enlace Google Maps": "http://maps.google.es/maps?z=14&ll=37.0943088,-3.6350731"
  },
  {
    "municipio": "Padul",
    "provincia": "Granada",
    "comunidad": "Andalucía",
    "latitud": "37.0243215",
    "longitud": "-3.6267194",
    "Enlace Google Maps": "http://maps.google.es/maps?z=14&ll=37.0243215,-3.6267194"
  },
  {
    "municipio": "Pampaneira",
    "provincia": "Granada",
    "comunidad": "Andalucía",
    "latitud": "36.9400402",
    "longitud": "-3.3613388",
    "Enlace Google Maps": "http://maps.google.es/maps?z=14&ll=36.9400402,-3.3613388"
  },
  {
    "municipio": "Pedro Martínez",
    "provincia": "Granada",
    "comunidad": "Andalucía",
    "latitud": "37.5016808",
    "longitud": "-3.2306591",
    "Enlace Google Maps": "http://maps.google.es/maps?z=14&ll=37.5016808,-3.2306591"
  },
  {
    "municipio": "Peligros",
    "provincia": "Granada",
    "comunidad": "Andalucía",
    "latitud": "37.2312162",
    "longitud": "-3.6294149",
    "Enlace Google Maps": "http://maps.google.es/maps?z=14&ll=37.2312162,-3.6294149"
  },
  {
    "municipio": "Peza, La",
    "provincia": "Granada",
    "comunidad": "Andalucía",
    "latitud": "37.275597",
    "longitud": "-3.2847611",
    "Enlace Google Maps": "http://maps.google.es/maps?z=14&ll=37.275597,-3.2847611"
  },
  {
    "municipio": "Pinar, El",
    "provincia": "Granada",
    "comunidad": "Andalucía",
    "latitud": "37.4433755",
    "longitud": "-3.4394181",
    "Enlace Google Maps": "http://maps.google.es/maps?z=14&ll=37.4433755,-3.4394181"
  },
  {
    "municipio": "Pinos Genil",
    "provincia": "Granada",
    "comunidad": "Andalucía",
    "latitud": "37.1633948",
    "longitud": "-3.5026353",
    "Enlace Google Maps": "http://maps.google.es/maps?z=14&ll=37.1633948,-3.5026353"
  },
  {
    "municipio": "Pinos Puente",
    "provincia": "Granada",
    "comunidad": "Andalucía",
    "latitud": "37.2514605",
    "longitud": "-3.7509953",
    "Enlace Google Maps": "http://maps.google.es/maps?z=14&ll=37.2514605,-3.7509953"
  },
  {
    "municipio": "Píñar",
    "provincia": "Granada",
    "comunidad": "Andalucía",
    "latitud": "37.4433755",
    "longitud": "-3.4394181",
    "Enlace Google Maps": "http://maps.google.es/maps?z=14&ll=37.4433755,-3.4394181"
  },
  {
    "municipio": "Polícar",
    "provincia": "Granada",
    "comunidad": "Andalucía",
    "latitud": "37.2576437",
    "longitud": "-3.2321024",
    "Enlace Google Maps": "http://maps.google.es/maps?z=14&ll=37.2576437,-3.2321024"
  },
  {
    "municipio": "Polopos",
    "provincia": "Granada",
    "comunidad": "Andalucía",
    "latitud": "36.7955277",
    "longitud": "-3.2971353",
    "Enlace Google Maps": "http://maps.google.es/maps?z=14&ll=36.7955277,-3.2971353"
  },
  {
    "municipio": "Pórtugos",
    "provincia": "Granada",
    "comunidad": "Andalucía",
    "latitud": "36.9424039",
    "longitud": "-3.3103864",
    "Enlace Google Maps": "http://maps.google.es/maps?z=14&ll=36.9424039,-3.3103864"
  },
  {
    "municipio": "Puebla de Don Fadrique",
    "provincia": "Granada",
    "comunidad": "Andalucía",
    "latitud": "37.9579029",
    "longitud": "-2.4350804",
    "Enlace Google Maps": "http://maps.google.es/maps?z=14&ll=37.9579029,-2.4350804"
  },
  {
    "municipio": "Pulianas",
    "provincia": "Granada",
    "comunidad": "Andalucía",
    "latitud": "37.2226455",
    "longitud": "-3.6081631",
    "Enlace Google Maps": "http://maps.google.es/maps?z=14&ll=37.2226455,-3.6081631"
  },
  {
    "municipio": "Purullena",
    "provincia": "Granada",
    "comunidad": "Andalucía",
    "latitud": "37.3175903",
    "longitud": "-3.1902735",
    "Enlace Google Maps": "http://maps.google.es/maps?z=14&ll=37.3175903,-3.1902735"
  },
  {
    "municipio": "Quéntar",
    "provincia": "Granada",
    "comunidad": "Andalucía",
    "latitud": "37.1920078",
    "longitud": "-3.4681919",
    "Enlace Google Maps": "http://maps.google.es/maps?z=14&ll=37.1920078,-3.4681919"
  },
  {
    "municipio": "Rubite",
    "provincia": "Granada",
    "comunidad": "Andalucía",
    "latitud": "36.808843",
    "longitud": "-3.3480437",
    "Enlace Google Maps": "http://maps.google.es/maps?z=14&ll=36.808843,-3.3480437"
  },
  {
    "municipio": "Salar",
    "provincia": "Granada",
    "comunidad": "Andalucía",
    "latitud": "37.148819",
    "longitud": "-4.0677319",
    "Enlace Google Maps": "http://maps.google.es/maps?z=14&ll=37.148819,-4.0677319"
  },
  {
    "municipio": "Salobreña",
    "provincia": "Granada",
    "comunidad": "Andalucía",
    "latitud": "36.7462568",
    "longitud": "-3.587108",
    "Enlace Google Maps": "http://maps.google.es/maps?z=14&ll=36.7462568,-3.587108"
  },
  {
    "municipio": "Santa Cruz del Comercio",
    "provincia": "Granada",
    "comunidad": "Andalucía",
    "latitud": "37.0602434",
    "longitud": "-3.9767164",
    "Enlace Google Maps": "http://maps.google.es/maps?z=14&ll=37.0602434,-3.9767164"
  },
  {
    "municipio": "Santa Fe",
    "provincia": "Granada",
    "comunidad": "Andalucía",
    "latitud": "37.189358",
    "longitud": "-3.719076",
    "Enlace Google Maps": "http://maps.google.es/maps?z=14&ll=37.189358,-3.719076"
  },
  {
    "municipio": "Soportújar",
    "provincia": "Granada",
    "comunidad": "Andalucía",
    "latitud": "36.9283886",
    "longitud": "-3.4051336",
    "Enlace Google Maps": "http://maps.google.es/maps?z=14&ll=36.9283886,-3.4051336"
  },
  {
    "municipio": "Sorvilán",
    "provincia": "Granada",
    "comunidad": "Andalucía",
    "latitud": "36.7944194",
    "longitud": "-3.2675239",
    "Enlace Google Maps": "http://maps.google.es/maps?z=14&ll=36.7944194,-3.2675239"
  },
  {
    "municipio": "Taha, La",
    "provincia": "Granada",
    "comunidad": "Andalucía",
    "latitud": "37.1605731",
    "longitud": "-3.6067872",
    "Enlace Google Maps": "http://maps.google.es/maps?z=14&ll=37.1605731,-3.6067872"
  },
  {
    "municipio": "Torre-Cardela",
    "provincia": "Granada",
    "comunidad": "Andalucía",
    "latitud": "37.5045692",
    "longitud": "-3.3560155",
    "Enlace Google Maps": "http://maps.google.es/maps?z=14&ll=37.5045692,-3.3560155"
  },
  {
    "municipio": "Torvizcón",
    "provincia": "Granada",
    "comunidad": "Andalucía",
    "latitud": "36.8778786",
    "longitud": "-3.2985516",
    "Enlace Google Maps": "http://maps.google.es/maps?z=14&ll=36.8778786,-3.2985516"
  },
  {
    "municipio": "Trevélez",
    "provincia": "Granada",
    "comunidad": "Andalucía",
    "latitud": "37.0024449",
    "longitud": "-3.2668715",
    "Enlace Google Maps": "http://maps.google.es/maps?z=14&ll=37.0024449,-3.2668715"
  },
  {
    "municipio": "Turón",
    "provincia": "Granada",
    "comunidad": "Andalucía",
    "latitud": "36.8635768",
    "longitud": "-3.0577715",
    "Enlace Google Maps": "http://maps.google.es/maps?z=14&ll=36.8635768,-3.0577715"
  },
  {
    "municipio": "Ugíjar",
    "provincia": "Granada",
    "comunidad": "Andalucía",
    "latitud": "36.960752",
    "longitud": "-3.0547537",
    "Enlace Google Maps": "http://maps.google.es/maps?z=14&ll=36.960752,-3.0547537"
  },
  {
    "municipio": "Valle del Zalabí",
    "provincia": "Granada",
    "comunidad": "Andalucía",
    "latitud": "37.2861111",
    "longitud": "-3.0088889",
    "Enlace Google Maps": "http://maps.google.es/maps?z=14&ll=37.2861111,-3.0088889"
  },
  {
    "municipio": "Valle, El",
    "provincia": "Granada",
    "comunidad": "Andalucía",
    "latitud": "37.2861111",
    "longitud": "-3.0088889",
    "Enlace Google Maps": "http://maps.google.es/maps?z=14&ll=37.2861111,-3.0088889"
  },
  {
    "municipio": "Válor",
    "provincia": "Granada",
    "comunidad": "Andalucía",
    "latitud": "36.9958864",
    "longitud": "-3.0831234",
    "Enlace Google Maps": "http://maps.google.es/maps?z=14&ll=36.9958864,-3.0831234"
  },
  {
    "municipio": "Vegas del Genil",
    "provincia": "Granada",
    "comunidad": "Andalucía",
    "latitud": "37.1666667",
    "longitud": "-3.6833333",
    "Enlace Google Maps": "http://maps.google.es/maps?z=14&ll=37.1666667,-3.6833333"
  },
  {
    "municipio": "Vélez de Benaudalla",
    "provincia": "Granada",
    "comunidad": "Andalucía",
    "latitud": "36.8319522",
    "longitud": "-3.5162094",
    "Enlace Google Maps": "http://maps.google.es/maps?z=14&ll=36.8319522,-3.5162094"
  },
  {
    "municipio": "Ventas de Huelma",
    "provincia": "Granada",
    "comunidad": "Andalucía",
    "latitud": "37.0685367",
    "longitud": "-3.8221333",
    "Enlace Google Maps": "http://maps.google.es/maps?z=14&ll=37.0685367,-3.8221333"
  },
  {
    "municipio": "Villamena",
    "provincia": "Granada",
    "comunidad": "Andalucía",
    "latitud": "36.990354",
    "longitud": "-3.588935",
    "Enlace Google Maps": "http://maps.google.es/maps?z=14&ll=36.990354,-3.588935"
  },
  {
    "municipio": "Villanueva de las Torres",
    "provincia": "Granada",
    "comunidad": "Andalucía",
    "latitud": "37.5566329",
    "longitud": "-3.090193",
    "Enlace Google Maps": "http://maps.google.es/maps?z=14&ll=37.5566329,-3.090193"
  },
  {
    "municipio": "Villanueva Mesía",
    "provincia": "Granada",
    "comunidad": "Andalucía",
    "latitud": "37.2141935",
    "longitud": "-4.0112479",
    "Enlace Google Maps": "http://maps.google.es/maps?z=14&ll=37.2141935,-4.0112479"
  },
  {
    "municipio": "Víznar",
    "provincia": "Granada",
    "comunidad": "Andalucía",
    "latitud": "37.2310779",
    "longitud": "-3.5538349",
    "Enlace Google Maps": "http://maps.google.es/maps?z=14&ll=37.2310779,-3.5538349"
  },
  {
    "municipio": "Zafarraya",
    "provincia": "Granada",
    "comunidad": "Andalucía",
    "latitud": "36.9755116",
    "longitud": "-4.144421",
    "Enlace Google Maps": "http://maps.google.es/maps?z=14&ll=36.9755116,-4.144421"
  },
  {
    "municipio": "Zagra",
    "provincia": "Granada",
    "comunidad": "Andalucía",
    "latitud": "37.2530273",
    "longitud": "-4.168132",
    "Enlace Google Maps": "http://maps.google.es/maps?z=14&ll=37.2530273,-4.168132"
  },
  {
    "municipio": "Zubia, La",
    "provincia": "Granada",
    "comunidad": "Andalucía",
    "latitud": "37.1206136",
    "longitud": "-3.5846685",
    "Enlace Google Maps": "http://maps.google.es/maps?z=14&ll=37.1206136,-3.5846685"
  },
  {
    "municipio": "Zújar",
    "provincia": "Granada",
    "comunidad": "Andalucía",
    "latitud": "37.5401523",
    "longitud": "-2.842817",
    "Enlace Google Maps": "http://maps.google.es/maps?z=14&ll=37.5401523,-2.842817"
  },
  {
    "municipio": "Alájar",
    "provincia": "Huelva",
    "comunidad": "Andalucía",
    "latitud": "37.8743849",
    "longitud": "-6.6660783",
    "Enlace Google Maps": "http://maps.google.es/maps?z=14&ll=37.8743849,-6.6660783"
  },
  {
    "municipio": "Aljaraque",
    "provincia": "Huelva",
    "comunidad": "Andalucía",
    "latitud": "37.271106",
    "longitud": "-7.0215847",
    "Enlace Google Maps": "http://maps.google.es/maps?z=14&ll=37.271106,-7.0215847"
  },
  {
    "municipio": "Almendro, El",
    "provincia": "Huelva",
    "comunidad": "Andalucía",
    "latitud": "37.264921",
    "longitud": "-6.9256504",
    "Enlace Google Maps": "http://maps.google.es/maps?z=14&ll=37.264921,-6.9256504"
  },
  {
    "municipio": "Almonaster la Real",
    "provincia": "Huelva",
    "comunidad": "Andalucía",
    "latitud": "37.8718102",
    "longitud": "-6.7879015",
    "Enlace Google Maps": "http://maps.google.es/maps?z=14&ll=37.8718102,-6.7879015"
  },
  {
    "municipio": "Almonte",
    "provincia": "Huelva",
    "comunidad": "Andalucía",
    "latitud": "37.2625346",
    "longitud": "-6.5172401",
    "Enlace Google Maps": "http://maps.google.es/maps?z=14&ll=37.2625346,-6.5172401"
  },
  {
    "municipio": "Alosno",
    "provincia": "Huelva",
    "comunidad": "Andalucía",
    "latitud": "37.5493568",
    "longitud": "-7.1154282",
    "Enlace Google Maps": "http://maps.google.es/maps?z=14&ll=37.5493568,-7.1154282"
  },
  {
    "municipio": "Aracena",
    "provincia": "Huelva",
    "comunidad": "Andalucía",
    "latitud": "37.8941732",
    "longitud": "-6.5612067",
    "Enlace Google Maps": "http://maps.google.es/maps?z=14&ll=37.8941732,-6.5612067"
  },
  {
    "municipio": "Aroche",
    "provincia": "Huelva",
    "comunidad": "Andalucía",
    "latitud": "37.9442586",
    "longitud": "-6.954265",
    "Enlace Google Maps": "http://maps.google.es/maps?z=14&ll=37.9442586,-6.954265"
  },
  {
    "municipio": "Arroyomolinos de León",
    "provincia": "Huelva",
    "comunidad": "Andalucía",
    "latitud": "38.0260375",
    "longitud": "-6.4211041",
    "Enlace Google Maps": "http://maps.google.es/maps?z=14&ll=38.0260375,-6.4211041"
  },
  {
    "municipio": "Ayamonte",
    "provincia": "Huelva",
    "comunidad": "Andalucía",
    "latitud": "37.2146613",
    "longitud": "-7.4098188",
    "Enlace Google Maps": "http://maps.google.es/maps?z=14&ll=37.2146613,-7.4098188"
  },
  {
    "municipio": "Beas",
    "provincia": "Huelva",
    "comunidad": "Andalucía",
    "latitud": "37.4259207",
    "longitud": "-6.7929882",
    "Enlace Google Maps": "http://maps.google.es/maps?z=14&ll=37.4259207,-6.7929882"
  },
  {
    "municipio": "Berrocal",
    "provincia": "Huelva",
    "comunidad": "Andalucía",
    "latitud": "37.6088785",
    "longitud": "-6.5424931",
    "Enlace Google Maps": "http://maps.google.es/maps?z=14&ll=37.6088785,-6.5424931"
  },
  {
    "municipio": "Bollullos Par del Condado",
    "provincia": "Huelva",
    "comunidad": "Andalucía",
    "latitud": "37.3361526",
    "longitud": "-6.5357576",
    "Enlace Google Maps": "http://maps.google.es/maps?z=14&ll=37.3361526,-6.5357576"
  },
  {
    "municipio": "Bonares",
    "provincia": "Huelva",
    "comunidad": "Andalucía",
    "latitud": "37.3218969",
    "longitud": "-6.6806974",
    "Enlace Google Maps": "http://maps.google.es/maps?z=14&ll=37.3218969,-6.6806974"
  },
  {
    "municipio": "Cabezas Rubias",
    "provincia": "Huelva",
    "comunidad": "Andalucía",
    "latitud": "37.7264991",
    "longitud": "-7.0874504",
    "Enlace Google Maps": "http://maps.google.es/maps?z=14&ll=37.7264991,-7.0874504"
  },
  {
    "municipio": "Cala",
    "provincia": "Huelva",
    "comunidad": "Andalucía",
    "latitud": "37.9721664",
    "longitud": "-6.3164896",
    "Enlace Google Maps": "http://maps.google.es/maps?z=14&ll=37.9721664,-6.3164896"
  },
  {
    "municipio": "Calañas",
    "provincia": "Huelva",
    "comunidad": "Andalucía",
    "latitud": "37.6548141",
    "longitud": "-6.8786824",
    "Enlace Google Maps": "http://maps.google.es/maps?z=14&ll=37.6548141,-6.8786824"
  },
  {
    "municipio": "Campillo, El",
    "provincia": "Huelva",
    "comunidad": "Andalucía",
    "latitud": "37.551275",
    "longitud": "-3.6365495",
    "Enlace Google Maps": "http://maps.google.es/maps?z=14&ll=37.551275,-3.6365495"
  },
  {
    "municipio": "Campofrío",
    "provincia": "Huelva",
    "comunidad": "Andalucía",
    "latitud": "37.7677585",
    "longitud": "-6.5730988",
    "Enlace Google Maps": "http://maps.google.es/maps?z=14&ll=37.7677585,-6.5730988"
  },
  {
    "municipio": "Cañaveral de León",
    "provincia": "Huelva",
    "comunidad": "Andalucía",
    "latitud": "38.0145364",
    "longitud": "-6.527808",
    "Enlace Google Maps": "http://maps.google.es/maps?z=14&ll=38.0145364,-6.527808"
  },
  {
    "municipio": "Cartaya",
    "provincia": "Huelva",
    "comunidad": "Andalucía",
    "latitud": "37.2831395",
    "longitud": "-7.1549789",
    "Enlace Google Maps": "http://maps.google.es/maps?z=14&ll=37.2831395,-7.1549789"
  },
  {
    "municipio": "Castaño del Robledo",
    "provincia": "Huelva",
    "comunidad": "Andalucía",
    "latitud": "37.8950963",
    "longitud": "-6.7039426",
    "Enlace Google Maps": "http://maps.google.es/maps?z=14&ll=37.8950963,-6.7039426"
  },
  {
    "municipio": "Cerro de Andévalo, El",
    "provincia": "Huelva",
    "comunidad": "Andalucía",
    "latitud": "37.2631764",
    "longitud": "-6.9312227",
    "Enlace Google Maps": "http://maps.google.es/maps?z=14&ll=37.2631764,-6.9312227"
  },
  {
    "municipio": "Chucena",
    "provincia": "Huelva",
    "comunidad": "Andalucía",
    "latitud": "37.361574",
    "longitud": "-6.3939462",
    "Enlace Google Maps": "http://maps.google.es/maps?z=14&ll=37.361574,-6.3939462"
  },
  {
    "municipio": "Corteconcepción",
    "provincia": "Huelva",
    "comunidad": "Andalucía",
    "latitud": "37.8958559",
    "longitud": "-6.5058778",
    "Enlace Google Maps": "http://maps.google.es/maps?z=14&ll=37.8958559,-6.5058778"
  },